Country,Town,Site Name,Location,Services,Cost,Altitude,Latitude,Longitude,Website URL,Site Type,Comments
Andorra,Canillo,,Countryside,,€0.00,1284,42.572822,1.586612,http://ourbumble.com/llorvorsi-to-villefranche-de-la-chalfort/,Wild,Brilliant parking spot for lunch with stunning views over Canillo and mountain peaks.  Waterfalls just behind.
Andorra,Ordino,,Countryside,Trash,€0.00,1984,42.555923,1.57153,http://ourbumble.com/llorvorsi-to-villefranche-de-la-chalfort/,Mixed Parking,Lay by right at the mountain pass with stunning views on both sides of the road.  
Andorra,Ordino,,Village/Town/City,"Fresh WaterGrey WaterBlack WaterTrashToiletsWi-Fi",€7.00,1288,42.555916,1.53263,http://ourbumble.com/llorvorsi-to-villefranche-de-la-chalfort/,Rest Area & Services,Small car park / aire at the side of ports centre. €0.50 per hour max €7 per day with max 48 hour stay. Motorhome service point.  Free wifi inside library.
Andorra,Arcais,,Countryside,"ToiletsShowers",€0.00,2223,42.631773,1.482459,http://ourbumble.com/llorvorsi-to-villefranche-de-la-chalfort/,Mixed Parking,Car park at the bottom of the sky run. Cafe with great valley views
Andorra,El Serrat,,Countryside,Trash,€0.00,1940,42.63184,1.501141,http://ourbumble.com/llorvorsi-to-villefranche-de-la-chalfort/,Mixed Parking,"Massive car park at the bottom of the sky lift.  Flat, level Tarmac with fine view down the valley with odd few waterfalls thrown in for good measure. "
Andorra,Pas de la Casa,,Countryside,,€0.00,2425,42.540494,1.718001,http://ourbumble.com/llorvorsi-to-villefranche-de-la-chalfort/,Mixed Parking,Loose gravel car park at top of the mountain pass with stunning views down the valley and across the peaks.  No restrictions for Motorhomes or camping.  
Austria,Wacht,,Countryside,"Fresh WaterTrash",€0.00,649,46.797645,12.839411,http://ourbumble.com/lake-jansa-to-lofer/,Wild,Small layby in middle of countryside. 
Austria,Lienz,,Village/Town/City,,€0.00,679,46.832834,12.752268,http://ourbumble.com/lake-jansa-to-lofer/,Mixed Parking,"Free parking very close to centre, toboggan run and castle .  No overnight parking permitted.  The car park does has a manual barrier that we assume is locked overnight."
Austria,Lienz,,Village/Town/City,,€0.00,681,46.827749,12.761863,http://ourbumble.com/lake-jansa-to-lofer/,Mixed Parking,"Car park with no restrictions.  Just off the main road and short stroll to centre.  Flat, level, tarmac surface."
Austria,Dollach,,Village/Town/City,Fresh Water,€0.00,1027,46.96892,12.896224,http://ourbumble.com/lake-jansa-to-lofer/,Wild,Lay by at the side of the main road.  Great views of the valley.  Small waterwheel to the side and supermarket just down the hill.  Ideal spot for pre grossglockner drive. 
Austria,Fusch,,Countryside,Trash,€0.00,1144,47.169152,12.812717,http://ourbumble.com/lake-jansa-to-lofer/,Mixed Parking,Tarmac car park at the entrance to grossglockner pass.  Stunning views and lovely walks
Austria,Kirchbach,,Countryside,"Fresh WaterTrash",€0.00,626,46.645631,13.168672,http://ourbumble.com/trieste-to-lake-jansa/,Mixed Parking & Services,Layby with great views.  Flat tarmac so n need for chocs.  Water tap and rubbish. B111 can be noisy during the day.
Belgium,Bruges,Kampeerautoterain 1,Village/Town/City,"Black WaterFresh WaterGrey WaterTrashElectric",€25.00,-9,51.196076,3.225659,http://ourbumble.com/belgium-waffles/,Rest Area & Services,"Two aires and a coach park located just off the main ring road. Great location for access to Bruges as only 5 minutes walk to centre. The aire is situated on the river with pleasant views over the marina and boats.   Reasonably quite with a little road noise.  Good clean parking bays with electric.  The services could be improved as only one rubbish point for all 3 sites and only one grey water dump located on the smaller of the site."
Belgium,Rijkhoven,Alden Biesen,Village/Town/City,,€0.00,,50.84159,5.51913,http://ourbumble.com/cologne-to-uk/,Mixed Parking,"Car park next to the site, possible camper area to the rear in summer but that is a guess, the area could also be for fates. The site had nice walks around the grounds."
Belgium,Tongeren,,,,€0.00,,50.7869,5.45143,http://ourbumble.com/cologne-to-uk/,Mixed Parking,"Gravel car park, Also Aire facing with services."
Belgium,Yres,,Village/Town/City,,€0.00,17,50.843534,2.896423,http://ourbumble.com/,Mixed Parking,Sports ground car park close to centre. Parking also at the sport centre around the corner.
Belgium,Ypres,,,,€0.00,3,50.843579,2.896372,http://ourbumble.com/,Mixed Parking,
Bulgaria,Sofia,,,"Fresh WaterGrey WaterBlack WaterTrashElectricWi-Fi",€10.00,536,42.743137,23.285587,http://ourbumble.com/bounce-bulgaria-bee-line-greece/,Campsite,Closest site to the centre. Essentially someone's back garden but he is very helpful and polite.
Bulgaria,,,,"Fresh WaterToilets",€0.00,328,41.968451,23.096097,http://ourbumble.com/bounce-bulgaria-bee-line-greece/,Mixed Parking,Service station parking area.
Bulgaria,Barzia,,,Fresh Water,€0.00,534,43.190006,23.158877,http://ourbumble.com/,Mixed Parking,Small parking area.
Denmark,Ribe,,Village/Town/City,"Grey WaterFresh WaterTrash",€0.00,9,55.324526,8.757599,http://ourbumble.com/another-beach-bash/,Mixed Parking,Flat car park that permits overnight parking but no camping. Only 10 minutes walk to city centre. All facilities located on the car park but no electricity.
Denmark,Hulsig,,,"TrashToilets",€0.00,0,57.639689,10.459034,http://ourbumble.com/barefoot-luxury/,Wild,"Layby just of the main road next to the sand dunes, narrow beach behind, mixed surfaces but level. Popular with cyclists. Located a couple of km before the town of Hulsig."
Denmark,Skagen,,Harbour,,€0.00,17,57.716056,10.57867,http://ourbumble.com/barefoot-luxury/,Mixed Parking,"Small car park in in between harbour and centre. Good quiet location and only couple of minutes walk to main attractions. Flat, level surface with no restrictions."
Denmark,Skagen,,,,€0.00,-0,57.715709,10.573479,http://ourbumble.com/barefoot-luxury/,Mixed Parking,"Quiet little car park near some properties and the windmill museum, 2 minutes into town and the harbour area, very quiet with parking for about 10 vehicles."
Denmark,Hojen,,Beach,,€0.00,2,57.719269,10.510115,http://ourbumble.com/barefoot-luxury/,Wild,Small ring road around the sand dunes with permitted parking. No restrictions and no fees. Straight on to the beach.
Denmark,Frederikshevn,,Village/Town/City,"Fresh WaterGrey WaterBlack WaterTrashToilets",€0.00,-56,57.39116,10.511498,http://ourbumble.com/barefoot-luxury/,Wild,Good service area with water. Fuel cheap but check out the price as what is advertised is not what you pay if you use the large fuel station.
Denmark,Flauenskjold,Flauenskjold borgerforening,Countryside,"Fresh WaterGrey WaterBlack WaterTrashToiletsElectric",€7.50,15,57.247592,10.283803,http://ourbumble.com/bluetooth-the-viking/,Campsite,"Very simple and basic campsite in an open field. Quiet and tranquil.The facilities are only average but this is reflected in a very good price of DDK50 or £5."
Denmark,Tonder,,Village/Town/City,Trash,€0.00,-7,54.930858,8.864219,http://ourbumble.com/off-for-a-bacon-butty/,Mixed Parking,"Car park located behind the old water tower/museum. Flat, clean tarmac surface, very quite at night and 500m to the town centre."
Denmark,Jellings,Viking Centre,Village/Town/City,"ToiletsTrash",€0.00,97,55.756159,9.416225,http://ourbumble.com/pigs-do-fly/,Mixed Parking,"Flat, level car park located next to the Viking centre. Free with no overnight restrictions. Toilet facilities but no camper services."
Denmark,Viborg,,Village/Town/City,Toilets,€0.00,17,56.419774,9.406366,http://ourbumble.com/pigs-do-fly/,Mixed Parking,Good little pull in spot for lunch or overnight spot. Basic facilities and nice picnic area. Located just of the main road.
Denmark,Suldrup,Himmerland,Village/Town/City,"Fresh WaterGrey WaterBlack WaterTrashToilets",€0.00,71,56.841781,9.743502,http://ourbumble.com/pigs-do-fly/,Mixed Parking & Services,Fuel station with free motorhome services. Fuel expensive but a place to stay overnight in needed.
Denmark,Saeby,Marina,Harbour,"TrashToilets",€13.00,-25,57.332066,10.532256,http://ourbumble.com/probably-the-best-palm-trees-in-denmark/,Mixed Parking,Overnight parking on the marina. Free during the day but DKK150 for overnight 10 until 7
Denmark,Frederkshavn,,Harbour,,€0.00,4,57.448619,10.550949,http://ourbumble.com/probably-the-best-palm-trees-in-denmark/,Wild,Loose stone chip ground but solid base underneath. Located Behind industrial section but tiny slip road takes you  straight on to beach. Quiet with no passing traffic.
Denmark,Frederkshavn,,Beach,Trash,€0.00,16,57.459521,10.539077,http://ourbumble.com/probably-the-best-palm-trees-in-denmark/,Mixed Parking,Car park with no restrictions and located straight on the beach. Hard surface with loose gravel
Denmark,Ostergy,Oasen,Countryside,"Fresh WaterGrey WaterTrashToiletsElectricWi-FiShowersBlack Water",€15.00,3,55.094321,8.540914,http://ourbumble.com/roaming-on-romo/,Rest Area & Services,"Excellent camperplads with spacious plots located round a small lake. Each plot has gravel parking with mown lawn area. Individual electricity posts which cost approx €1 for 12 hours. Peaceful and tranquil. Main information point has lots of leaflets about places to visit and Hannah and Carl the owners are very welcoming.  Shower and toilet facilities very clean. Washing machine and dryer located within shower block entrance. Massive warm TV room where people gather in the evening to share stories over a beer or two.As at May 2016 they were creating another camperplads just around the corner which houses 75 more spaces. 004573755200"
Denmark,Mogeltonder,,Village/Town/City,"ToiletsTrash",€0.00,10,54.941158,8.807908,http://ourbumble.com/village-fit-for-king/,Mixed Parking,Level gravel car park at the side of the church.  Clean with access to toilet facilities including fresh water
Estonia,Käsmu,,Countryside,,€0.00,28,59.61038,25.916426,http://ourbumble.com/captains-village-lahemaa-national-park/,Mixed Parking,Parking for walking trail. No restrictions
Estonia,Kasmu,,Village/Town/City,,€0.00,8,59.604403,25.92083,http://ourbumble.com/captains-village-lahemaa-national-park/,Mixed Parking,Grassy area behind the sailing club
Estonia,Kasmu,,Village/Town/City,,€0.00,5,59.600464,25.920203,http://ourbumble.com/captains-village-lahemaa-national-park/,Mixed Parking,Small town car park
Estonia,Kasmu,,Village/Town/City,,€10.00,-34,59.600487,25.919105,http://ourbumble.com/captains-village-lahemaa-national-park/,Campsite,
Estonia,Vosu,,Village/Town/City,,€0.00,-43,59.575857,25.941127,http://ourbumble.com/manors-castles-mansions-estonia/,Mixed Parking,Town square
Estonia,Vosu,,Beach,,€0.00,-41,59.580482,25.967232,http://ourbumble.com/manors-castles-mansions-estonia/,Mixed Parking,Beach parking
Estonia,Sagadi,,Village/Town/City,,€0.00,60,59.537952,26.085055,http://ourbumble.com/manors-castles-mansions-estonia/,Mixed Parking,Sagadi museum
Estonia,Sagadi,,Village/Town/City,,€0.00,54,59.512895,26.019297,http://ourbumble.com/manors-castles-mansions-estonia/,Mixed Parking,"Rear of museum parking, tarmac surface"
Estonia,Rakvere,,Village/Town/City,,€0.00,89,59.348163,26.35047,http://ourbumble.com/manors-castles-mansions-estonia/,Mixed Parking,"Rakvere castle. Parking at the side but if you follow the road up to the castle, you can park on top."
Estonia,Lasila,,Countryside,,€0.00,85,59.348178,26.350426,http://ourbumble.com/manors-castles-mansions-estonia/,Mixed Parking,Railway Manor
Estonia,Kabli,,Beach,,€0.00,1,58.014014,24.449056,http://ourbumble.com/riding-the-baltic-storms-roads-cesis/,Rest Area,Behind observation tower cracking little spot. Plenty wild life trails and good for bird watching by the beach
Estonia,Kabli,,,,€0.00,9,58.01194,24.44948,http://ourbumble.com/riding-the-baltic-storms-roads-cesis/,Mixed Parking,Beach parking.
Estonia,Kabli,,,,€0.00,44,57.964642,24.406556,http://ourbumble.com/riding-the-baltic-storms-roads-cesis/,Mixed Parking,Parking in the woods close to the beach.
Estonia,Keapi,,,,€0.00,-35,58.055869,24.446873,http://ourbumble.com/riding-the-baltic-storms-roads-cesis/,Mixed Parking,Dedicated parking with toilet facilities but no fresh water
Estonia,Laane,,Countryside,,€0.00,138,59.147124,26.438189,http://ourbumble.com/soviet-missile-bases-trail/,Wild,Visit the nuclear bunkers.
Estonia,Laane,,Countryside,,€0.00,144,59.147128,26.438151,http://ourbumble.com/soviet-missile-bases-trail/,Wild,More bunkers
Estonia,Parnu,,Lake,,€0.00,34,58.391129,24.516671,http://ourbumble.com/summer-spot-latvia/,Mixed Parking,Nice spot facing lake
Estonia,Parnu,,,,€0.00,1,58.387151,24.492084,http://ourbumble.com/summer-spot-latvia/,Mixed Parking,On the marina. Originally dedicated camper parking but when we arrived construction site.
Estonia,Tallin,,Harbour,,€20.00,6,59.466263,24.82304,http://ourbumble.com/towers-torches-towns-tallinn/,Mixed Parking & Services,"Working port with secure parking. Room for 50 campers. Supermarket and cafe within walking distance. Basic but functional. Price includes toilets, electric and services. Showers €2 extra."
Finland,Napaiiri,,,,€0.00,135,66.544219,25.851427,http://ourbumble.com/end-nightless-nights-heat-wave-santa/,Mixed Parking & Services,Santas village. Toilet and basic facilities but no grey waste. Free wifi
Finland,Napapiiri,,Lake,,€0.00,146,66.532384,25.845525,http://ourbumble.com/end-nightless-nights-heat-wave-santa/,Mixed Parking & Services,Parking area near recreation area inc outside swim area.
Finland,Turku,,Village/Town/City,,€0.00,34,60.454835,22.239592,http://ourbumble.com/flying-finn-oldest-town-finland-turku/,Mixed Parking,Parking area near Lidl.
Finland,Turku,,Village/Town/City,,€0.00,11,60.441158,22.246346,http://ourbumble.com/flying-finn-oldest-town-finland-turku/,Mixed Parking,Parking by the river.
Finland,Turku,,Village/Town/City,,€0.00,-5,60.437389,22.235615,http://ourbumble.com/flying-finn-oldest-town-finland-turku/,Mixed Parking,Castle parking with an 8 hour restriction
Finland,Turku,,Countryside,,€0.00,14,60.432995,22.180109,http://ourbumble.com/flying-finn-oldest-town-finland-turku/,Mixed Parking,Small parking area.
Finland,Turku,,Countryside,,€0.00,6,60.428221,22.178304,http://ourbumble.com/flying-finn-oldest-town-finland-turku/,Wild,Car park in pleasant area for walks etc.
Finland,Kokkola,,Beach,"TrashToiletsShowersFresh WaterBlack Water",€0.00,0,64.084375,23.413688,http://ourbumble.com/great-finnish-hospitality-longest-beach/,Wild,Small headland with water and service at the end.
Finland,Kovjoki,,Countryside,,€0.00,8,63.562543,22.72155,http://ourbumble.com/great-finnish-hospitality-longest-beach/,Rest Area,Parking spot on lake next to plastic elks
Finland,Voyri,,Countryside,,€0.00,-28,63.290793,22.369205,http://ourbumble.com/great-finnish-hospitality-longest-beach/,Mixed Parking,Picnic area
Finland,Mustasaari,,,,€0.00,30,63.157316,21.998374,http://ourbumble.com/great-finnish-hospitality-longest-beach/,Rest Area,At the side of a lake - good for bird watching
Finland,Kristiinankaupunki,,,,€0.00,41,62.206954,21.519953,http://ourbumble.com/great-finnish-hospitality-longest-beach/,Rest Area,Lay-by next to main road.
Finland,Pori,,Countryside,,€0.00,0,61.489658,21.78388,http://ourbumble.com/great-finnish-hospitality-longest-beach/,Mixed Parking,Garage and parking on river. Better than it sounds.
Finland,Rovaniemi,,Village/Town/City,,€0.00,116,66.507897,25.734185,http://ourbumble.com/santas-magic-missing-artikum-museum/,Mixed Parking,Including water and rug drying facilty
Finland,Tervola,,Countryside,,€0.00,26,66.011219,24.707245,http://ourbumble.com/santas-magic-missing-artikum-museum/,Mixed Parking,Parking area near a museum
Finland,Vikajarvi,,Countryside,"TrashToiletsFresh Water",€0.00,123,66.61958,26.185594,http://ourbumble.com/sleeping-land-bears-wolves-vikajarvi/,Rest Area & Services,Cabin with facilities for fire. Canoeing centre. Great walks all around the area.
Finland,Rovaniemen,,,,€0.00,158,66.545548,25.850319,http://ourbumble.com/sleeping-land-bears-wolves-vikajarvi/,Service Only,Parking at a fuel station
Finland,Kemi,,Harbour,,€0.00,-5,65.727706,24.555913,http://ourbumble.com/sometimes-just-enough-perfect-kemi/,Mixed Parking,Marina
Finland,,,Countryside,,€0.00,-5,65.442878,25.373133,http://ourbumble.com/sometimes-just-enough-perfect-kemi/,Rest Area,Lay-by near a roadside cafe
Finland,Lin Hamina,,Countryside,,€0.00,3,65.316182,25.373087,http://ourbumble.com/sometimes-just-enough-perfect-kemi/,Mixed Parking,Parking area at a fuel station.
Finland,Ojakyla,,Countryside,,€0.00,11,65.289356,25.372859,http://ourbumble.com/sometimes-just-enough-perfect-kemi/,Mixed Parking,Parking area at a fuel station.
Finland,,,,,€0.00,8,65.009218,25.453092,http://ourbumble.com/sometimes-just-enough-perfect-kemi/,Wild,Small marina  / boat yard
Finland,Raahe,,,,€0.00,12,64.694377,24.680143,http://ourbumble.com/sometimes-just-enough-perfect-kemi/,Rest Area,Plus nice walks in and around the woods.
Finland,Raahe,,Countryside,,€0.00,15,64.623856,24.424274,http://ourbumble.com/sometimes-just-enough-perfect-kemi/,Rest Area & Services,Parking area near a cafe.
Finland,Inari,Martinjarvi Erilli,Countryside,,€0.00,172,68.827121,27.288619,http://ourbumble.com/south-last-wilderness-europe/,Rest Area,Small tarmac parking area just set back from the road. Nice walking in the surrounding trees too.
Finland,Inari,,Lake,,€0.00,144,68.807401,27.36122,http://ourbumble.com/south-last-wilderness-europe/,Rest Area,Parking by a lake on a small side road.
Finland,Inari,Saulin Kurvi,Countryside,,€0.00,113,68.790403,27.388404,http://ourbumble.com/south-last-wilderness-europe/,Rest Area,Lay By set back from the main road.
Finland,Inari,Ohman,Lake,,€0.00,95,68.767074,27.450858,http://ourbumble.com/south-last-wilderness-europe/,Rest Area,Small parking area by the main road and next to the lake.
Finland,Inari,Ukonjarvi Info,Lake,,€0.00,127,68.743251,27.447173,http://ourbumble.com/south-last-wilderness-europe/,Rest Area,Small parking area by the main road and next to the lake.
Finland,Inari,Hirvasjarvi,Countryside,,€0.00,191,68.510163,27.515563,http://ourbumble.com/south-last-wilderness-europe/,Rest Area,Small parking area by the main road.
Finland,Inari,Savottakahila,Countryside,,€0.00,295,68.39062,27.397165,http://ourbumble.com/south-last-wilderness-europe/,Rest Area,Large tarmac parking area near a hotel.
Finland,Inari,Paukkula,Countryside,Trash,€0.00,275,68.372124,27.361381,http://ourbumble.com/south-last-wilderness-europe/,Rest Area,Lay-by next to wooded area just off main road.
Finland,Inari,,Countryside,Trash,€0.00,280,68.341729,27.336275,http://ourbumble.com/south-last-wilderness-europe/,Rest Area,Lay-bys on both sides of the road.
Finland,,,Countryside,,€0.00,284,68.208825,27.114653,http://ourbumble.com/south-last-wilderness-europe/,Rest Area,Lay-by next to wooded area just off main road.
Finland,Vuotso,,Countryside,,€0.00,226,68.10327,27.127941,http://ourbumble.com/south-last-wilderness-europe/,Wild,Nice tarmac area next to the river. Can also park on the other side of the road.
Finland,Vuotso,,Countryside,,€0.00,226,68.104444,27.124324,http://ourbumble.com/south-last-wilderness-europe/,Wild,Nice tarmac area next to the river. Can also park on the other side of the road.
Finland,Vuotso,,Countryside,"ToiletsTrash",€0.00,284,68.038522,27.047248,http://ourbumble.com/south-last-wilderness-europe/,Rest Area & Services,Parking area by the main road.
Finland,Vuotso,,Lake,,€0.00,209,67.912632,26.748873,http://ourbumble.com/south-last-wilderness-europe/,Rest Area,Parking area near lake
Finland,Peurasuvanto,,Countryside,,€0.00,182,67.798246,26.778077,http://ourbumble.com/south-last-wilderness-europe/,Wild,Dirt track next to lake but close to main road.
Finland,Sattanen,,Countryside,,€0.00,167,67.515325,26.632595,http://ourbumble.com/south-last-wilderness-europe/,Rest Area,Indicates service area on signs but no services just parking
Finland,Sodankyla,,Countryside,,€0.00,152,67.338888,26.651709,http://ourbumble.com/south-last-wilderness-europe/,Rest Area,Parking spot next to campsite
Finland,,,Countryside,,€10.00,185,67.020164,26.395638,http://ourbumble.com/south-last-wilderness-europe/,Rest Area & Services,"Cafe, petrol station and overnight stopping with electricity points for €5 extra"
Finland,Korvala,,,Toilets,€0.00,144,66.885856,26.183541,http://ourbumble.com/south-last-wilderness-europe/,Rest Area & Services,"Lay-by area with toilets, not very clean though but nice enough spot to stop over."
Finland,Korvala,,Countryside,Trash,€0.00,139,66.885465,26.18343,http://ourbumble.com/south-last-wilderness-europe/,Rest Area,Picnic spot by the main road.
Finland,,,Countryside,Trash,€0.00,120,66.725875,26.280745,http://ourbumble.com/south-last-wilderness-europe/,Rest Area,Layby
Finland,Rauma,,Harbour,,€0.00,-10,61.141999,21.480635,http://ourbumble.com/step-back-time-historic-rauma/,Mixed Parking,Good clean spot on the marina.
Finland,Rauma,,Village/Town/City,,€0.00,17,61.130792,21.512269,http://ourbumble.com/step-back-time-historic-rauma/,Mixed Parking,Stone church with overnight parking.
Finland,Laitila,,Countryside,,€0.00,1,60.894733,21.654918,http://ourbumble.com/step-back-time-historic-rauma/,Rest Area,Lay-by beside main road.
Finland,Helsinki,,Village/Town/City,,€0.00,-4,60.166834,24.979084,http://ourbumble.com/summer-time-retreat-helsinki/,Mixed Parking,Car park at side of port. Limited to 10 hours parking but ideal for parking whilst wait for ferry.
Finland,Kalajoki,,Village/Town/City,,€0.00,3,64.253747,23.940494,http://ourbumble.com/swimming-baltic-kalajoki/,Mixed Parking,Parking area at church and museum.
Finland,,,Village/Town/City,,€0.00,-3,64.231308,23.814065,http://ourbumble.com/swimming-baltic-kalajoki/,Mixed Parking,Water park
Finland,Kalajoki,,Beach,,€0.00,14,64.233892,23.788238,http://ourbumble.com/swimming-baltic-kalajoki/,Wild,Beach
Finland,Oulu,,Village/Town/City,,,,65.009421,25.454109,http://ourbumble.com/swimming-baltic-kalajoki/,Wild,Parking next to water and park area.
Finland,Kalajoki,,Countryside,,€0.00,-20,64.060665,23.654506,http://ourbumble.com/swimming-baltic-kalajoki/,Mixed Parking,Pleasant church car park with water available.
Finland,Turku,,Countryside,,€0.00,-15,60.428228,22.178722,http://ourbumble.com/tiny-islands-sunset-capital-helsinki/,Wild,"Wild / spare land Small island off Turku, Very quiet and peaceful"
Finland,Turku,,Village/Town/City,,€0.00,58,60.406486,23.215288,http://ourbumble.com/tiny-islands-sunset-capital-helsinki/,Service Only,Services
Finland,Helsinki,,Village/Town/City,,€0.00,4,60.173108,24.906837,http://ourbumble.com/tiny-islands-sunset-capital-helsinki/,Mixed Parking,Car Park.
Finland,Helsinki,,Lake,,€0.00,10,60.171969,24.903232,http://ourbumble.com/tiny-islands-sunset-capital-helsinki/,Mixed Parking,No restrictions and overlooking water
Finland,Helsinki,,Lake,,€0.00,30,60.172531,24.902171,http://ourbumble.com/tiny-islands-sunset-capital-helsinki/,Mixed Parking,Quiet spot on large boulder overlooking water. Water pump a few meters away
Finland,Naantali,,Village/Town/City,,€0.00,30,60.464287,22.022464,http://ourbumble.com/weird-wild-camping-pretty-town-naantali/,Mixed Parking,Sports complex with toilet facilites
Finland,Kokkola,,,,€0.00,-9,64.021956,23.500222,http://ourbumble.com/,Mixed Parking,Church and museum
France,Diksmuide,Ijzerdijk,Village/Town/City,Trash,€0.00,4,51.030514,2.853777,http://ourbumble.com/a-proper-belgium-bun-in-belgium/,Mixed Parking,Free car park at ijzerdijk tower. Quiet except for the odd passing train.  5 minutes walk in to the village centre
France,Baleruc les Bains,,Village/Town/City,"Fresh WaterGrey WaterBlack WaterTrashToiletsElectric",€0.00,12,43.445732,3.677563,http://ourbumble.com/beziers-to-pont-du-gard/,Rest Area & Services,Small free aire for 6 Motorhomes.  Located to one side of a large car park and within walking distance of the town and waters edge
France,Montpellier,,Village/Town/City,,€0.00,28,43.613193,3.887071,http://ourbumble.com/beziers-to-pont-du-gard/,Mixed Parking,"Flat level car park.  The car park is metered between 9-6 at €1.30 per hour.  However, if you drive right to the very end near Daikia building there are a dozen parking spots that are not metered.  Quiet at night and within easy walking distance of the city."
France,Saint Aunės,,Village/Town/City,,€0.00,58,43.644123,3.962388,http://ourbumble.com/beziers-to-pont-du-gard/,Mixed Parking,"Flat, leave and quiet along tree lined street. The parking bays are covered with trees, so plenty shelter and also good protection for the rear/front of the van.  Narbonne accessories are only a few kilometres down the road and so unfurl if you need to stay over.  Better than staying on the industrial estate."
France,Nimes ,,Village/Town/City,,€0.00,41,43.82632,4.357532,http://ourbumble.com/beziers-to-pont-du-gard/,Mixed Parking,"Nimes city centre is paid parking but this little car park is right on the edge of the paid area, so very close to city.  Off main road, so reasonably quiet but there is still passing traffic and trains"
France,Nimes,,Village/Town/City,Trash,€0.00,42,43.824272,4.354734,http://ourbumble.com/beziers-to-pont-du-gard/,Mixed Parking,"Small car park, flat and tarmaced.  Not far from centre and close by to water tap.  Reasonably quiet but the still  trains at night can be loud.  "
France,Pont du Gard,,Countryside,,€0.00,26,43.954818,4.546343,http://ourbumble.com/beziers-to-pont-du-gard/,Wild,Small piece of land which is only 2km from the Pont du Gard entrance.
France,Rouen,,Village/Town/City,Rubbish,€0.00,,49.43018,1.10566,http://ourbumble.com/here-we-go-trip-2015/,Mixed Parking,"Parking area next to the Seine river, 15 minute walk to the Cathedral. Sports facility next door."
France,Chartres,,Village/Town/City,,€0.00,,48.43467,1.49631,http://ourbumble.com/here-we-go-trip-2015/,Wild,Laybye next to the Les Bords de l'Eure campsite which is closed out of season.
France,Chartres,,Village/Town/City,"ToiletsRubbishFresh WaterGrey WaterBlack Water",€0.00,,48.43467,1.49631,http://ourbumble.com/here-we-go-trip-2015/,Campsite,Les Bords de l'Eure campsite closed in winter so cannot comment on facilities. Appeared clean & tidy though.
France,Chambord,,Village/Town/City,,€0.00,,47.61593001,0.51135,http://ourbumble.com/here-we-go-trip-2015/,Mixed Parking,"7€ to park in the day & another 10€ to park overnight although the signs indicate it would be 10€ for everything, Water taps onsite but not working as of 13/12/14. The Chateaux entrance fee is 11€ for adults."
France,Chaunay,,Village/Town/City,,€0.00,,46.20585,0.16371,http://ourbumble.com/here-we-go-trip-2015/,Mixed Parking,"Car park located next to the Chateaux, entrance price is €12.50 but free parking, no facilities but right next to the village centre."
France,Bordeaux,,Village/Town/City,,€0.00,,44.865253,0.518078,http://ourbumble.com/here-we-go-trip-2015/,Mixed Parking,"Car park located near main road so some noise, lots of space though and easy access to the shops at Carrefour."
France,Biaritz,Aire de Biaritz,Beach,"Fresh WaterGrey WaterBlack WaterRubbish",€0.00,,43.465963,1.571922,http://ourbumble.com/here-we-go-trip-2015/,Rest Area & Services,"Expensive for what it is, free electricity but no other extra facilities for your money, watch out for the machine on entry as it is easy to pay for 2 nights (max) instead of one.This Aire is only 2 minutes walk from a great beach."
France,Dorres,,Countryside,Trash,€0.00,1434,42.486905,1.944741,http://ourbumble.com/llorvorsi-to-villefranche-de-la-chalfort/,Mixed Parking,Loose gravel car park on a bit of a slope.  Nice and quiet and only 5 minutes walk to natural Roman baths.
France,Villefranche de Conflent,,Village/Town/City,Trash,€2.00,451,42.586207,2.365764,http://ourbumble.com/llorvorsi-to-villefranche-de-la-chalfort/,Mixed Parking,Small off the road car park which is idea for visiting the village.  Overnight is free and small parking fee of €2 for the day 9-19.
France,Callelongue,,Beach,Trash,€0.00,68,43.211733,5.350966,http://ourbumble.com/marseilles-to-saint-paul-de-vence/,Wild,On the tip of the headland as you look across the bay to Marseille.  Stunning location and right next door to a small fishing village.  No services but well worth it for the peace and view.
France,La Seyne Sur Mer,,Village/Town/City,,€0.00,5,43.117686,5.884093,http://ourbumble.com/marseilles-to-saint-paul-de-vence/,Mixed Parking,Small car park.  No facilities but Tarmac suface and level.  No restrictions.
France,Toulon,,Village/Town/City,,€0.00,19,43.127034,5.936636,http://ourbumble.com/marseilles-to-saint-paul-de-vence/,Mixed Parking,Toulon city centre car park that permits campers.  9-17 €2.50 flat fee but free there after.  Quite a few homeless people in and around camper parking.
France,Le Pradet,,Beach,Trash,€0.00,50,43.102025,6.016674,http://ourbumble.com/marseilles-to-saint-paul-de-vence/,Mixed Parking,Dusty gravel car park with plenty trees offering shade.  A bit uneven in places but plenty opportunity to find right spot.  Access to two beaches - one nudist and one regular.  Both pebble coves.  Nice and quiet in the evenings.
France,Hyeres,,Beach,,€0.00,-6,43.114064,6.195387,http://ourbumble.com/marseilles-to-saint-paul-de-vence/,Mixed Parking,Good little car park for free 24 stop over.  No facilities but right on beach and not far from village
France,La Londe les Maures,,Village/Town/City,"Fresh WaterGrey WaterBlack WaterTrash",€0.00,19,43.131923,6.230595,http://ourbumble.com/marseilles-to-saint-paul-de-vence/,Mixed Parking,Small free sire with basic site services . Machine was not in service but plenty space and level Tarmac surface.
France,Le Lavandou,,Beach,Trash,€0.00,35,43.149637,6.415975,http://ourbumble.com/marseilles-to-saint-paul-de-vence/,Wild,Wide pavement / lay by for parking with nice elevated views over the coast.  A few minutes walk to the beach.
France,Plate de Gigaro,,Beach,Trash,€0.00,4,43.185621,6.594047,http://ourbumble.com/marseilles-to-saint-paul-de-vence/,Mixed Parking,"On street parking.  Flat and Tarmac, right on beach front.  Metered during the day 9-19 which is €1 per hour. May be able to stay overnight out of season."
France,Pampelonne,,,,€0.00,20,43.21983,6.647665,http://ourbumble.com/marseilles-to-saint-paul-de-vence/,Wild,"Waste land not to far from the beach, land is uneven and not ideal. There is shade though from the trees."
France,Roquebrune sur Argens,,Village/Town/City,,€0.00,20,43.21983,6.647665,http://ourbumble.com/marseilles-to-saint-paul-de-vence/,Mixed Parking,"Car park located opposite Motorhome stores next to main road, quiet at night and space for about 10 vans."
France,Nice,,,,€0.00,,43.67725,7.21913,http://ourbumble.com/marseilles-to-saint-paul-de-vence/,Mixed Parking,"Car park next to cemetery, with shade under some pine trees, dedicated parking for 4 vans but lots of space on the car park, and side street."
France,Saint-Laurent-du-Var,,Village/Town/City,"Fresh WaterGrey WaterBlack WaterTrash",€0.00,32,43.677015,7.201751,http://ourbumble.com/marseilles-to-saint-paul-de-vence/,Rest Area & Services,"Aired located about 6km from the beach and 1km to town, on main road but very quiet at night. Space for about 10 vans. Black waste goes in the grid with the grey water."
France,Cagnes sur mer,Montée du Souvenir,Village/Town/City,,€0.00,162,43.6688,7.144778,http://ourbumble.com/marseilles-to-saint-paul-de-vence/,Mixed Parking,"Small parking space next to a car park and cemetery, space for 2 vans only. Close to lidl and the town centre, there is a national monument next to it also.Site slopes downhill slightly."
France,Calais,,Harbour,"ToiletsRubbishFresh WaterGrey WaterBlack Water",€0.00,,50.96586,1.84347,http://ourbumble.com/more-to-calais-than-a-port/,Rest Area & Services,"Now closed, aire now in located back towards the town centre on your right."
France,Dunkirk,,Beach,Trash,€0.00,-12,51.053255,2.414562,http://ourbumble.com/operation-dynamo/,Rest Area & Services,"Free aire with space for 30 van, no services but water and toilets available on the promenade which is right next to the aire.Good spot right on the beach"
France,Bray Dunes,,Beach,"TrashToilets",€0.00,3,51.078026,2.514775,http://ourbumble.com/operation-dynamo/,Mixed Parking,"Car with permitted motorhome and coach parking. No limits on stay and overnight permitted. One block away from beach front and promenade.  Tourist information building adjacent to the car park.Toilet facilities for fresh water and emptying loo. "
France,Avignon,,Village/Town/City,Trash,€0.00,18,43.946695,4.795135,http://ourbumble.com/pont-du-gard-to-marseilles/,Mixed Parking,On street parking located at the side of the river.  Quiet and shaded and not far from town.
France,Chateau du Pape,,Village/Town/City,Trash,€0.00,119,44.058179,4.82877,http://ourbumble.com/pont-du-gard-to-marseilles/,Mixed Parking,Small car park right next to ruin and great views over vineyards.  No facilities but the location is stunning.  2 minutes to village with plenty options for wine tasting.
France,Sentient du Vallon,,Village/Town/City,"Fresh WaterGrey WaterToiletsTrash",€0.00,108,43.869822,5.145815,http://ourbumble.com/pont-du-gard-to-marseilles/,Mixed Parking,Small free car park at lavender museum.  Water tap and tolerates overnight parking.
France,Gorges,,Village/Town/City,Trash,€0.00,278,43.901133,5.193127,http://ourbumble.com/pont-du-gard-to-marseilles/,Wild,Large open land just outside of gorges.  No facilities but plenty places to park up 
France,Lourmarin,Lourmarin Chateau,Village/Town/City,Trash,€0.00,,43.762275,5.359397,http://ourbumble.com/pont-du-gard-to-marseilles/,Mixed Parking,A small little artistic village with chateau.  Parking on the road on a small car park in the village but get very busy in peak season.  Water fountain in town but difficult to fill containers due to limescale build up.
France,Aix Provençal ,,Village/Town/City,,€0.00,194,43.524569,5.460495,http://ourbumble.com/pont-du-gard-to-marseilles/,Wild,Spare piece of land at the side of the Pays D'Aix football ground.  Large stone surface and flat.  Only 2k to city.
France,Marseille ,,Village/Town/City,Trash,€0.00,10,43.277756,5.355302,http://ourbumble.com/pont-du-gard-to-marseilles/,Mixed Parking,"Excellent spot for wild camping in a city.  Straight on the front, a couple of miles out of the city and great sunsets.  On a main road, which is quieter in evening.  "
France,Saint paul de vence,,Village/Town/City,Trash,€0.00,228,43.702302,7.116813,http://ourbumble.com/saint-paul-du-vence-to-santo-stefano-la-mare/,Mixed Parking,Dedicated motorhome parking for 7 vans just past the coach parking area. Partial shade from trees. Just a short walk to the village centre. Maximun stay is 48 hours. Makes sure you follow the sign post for the town though as the tomtom takes you down narrow roads that may be a problem for wider vans.
France,Vence,,,,€0.00,290,43.72024,7.111486,http://ourbumble.com/saint-paul-du-vence-to-santo-stefano-la-mare/,Mixed Parking,Parking space located next to supermarket and just on the end of town.  Overnight parking permitted
France,Codalet,Abbey Saint Michael de Cuza,Countryside,"TrashToilets",€0.00,443,42.59482,2.416067,http://ourbumble.com/villefranche-de-confluent-to-bezier/,Mixed Parking,Small car park for visiting the abbey with no restrictions.  Toilet facilities just to the left as you enter the abbey grounds.
France,Cucugnan,Chateau de Quéribus,Countryside,,€0.00,603,42.839655,2.619388,http://ourbumble.com/villefranche-de-confluent-to-bezier/,Mixed Parking,One of the best wild camping spots but not for the faint hearted.  Perched right at the end of the chateau car park on the tip of the rock.  Brilliant 360 views of countryside and chateau.
France,Peyrepertuse,,Countryside,,€0.00,399,42.870006,2.57273,http://ourbumble.com/villefranche-de-confluent-to-bezier/,Mixed Parking,Small lay by suitable for overnight stop if visiting the chateau.  Loose gravel on a slope but a few flat spots.
France,Alets les Bains,,Village/Town/City,Trash,€0.00,208,42.998196,2.256028,http://ourbumble.com/villefranche-de-confluent-to-bezier/,Mixed Parking,Plenty room for on street parking with no restrictions. Fresh water near sports facility.  Old town has height restriction of 2.5m
France,Alets les Bains,Open air swimming pool,Village/Town/City,"Fresh WaterTrashToiletsShowers",€0.00,208,43.000472,2.252025,http://ourbumble.com/villefranche-de-confluent-to-bezier/,Mixed Parking,"Flat, Tarmac car park right at the side of the open air swimming pool,  fresh water spring and communal washing area.  Two minutes walk in to village with basic village shops. Swimming pool €3 includes toilets and showers."
France,Carcassonne,,Village/Town/City,,€0.00,122,43.208924,2.379624,http://ourbumble.com/villefranche-de-confluent-to-bezier/,Mixed Parking,"Small car park tucked between two small retail outlets and facing the post office.  The units are unoccupied and free to park.  Flat, Tarmac and level.  Parking inside town €20 for the day."
France,Carcassonne ,,Village/Town/City,,€0.00,99,43.211409,2.358996,http://ourbumble.com/villefranche-de-confluent-to-bezier/,Mixed Parking,Main car parks in city cost €2 per hour or €20 per day.  We found this free parking spot right by the river and overlooking the walled city.  Tarmac and level.  Follow for hospital and then take a right turn under bridge and parking just there.  All marked out and free with no restrictions.
France,Beziers,,Village/Town/City,,€0.00,9,43.323007,3.289735,http://ourbumble.com/villefranche-de-confluent-to-bezier/,Mixed Parking,"Car park with no restrictions.  Great for visiting bricoman, Motorhome accessory shop, supermarket and cheap fuel. Very quiet in the evenings"
France,Beziers,,Village/Town/City,"Fresh WaterGrey WaterBlack WaterTrash",€0.00,2,43.316624,3.284659,http://ourbumble.com/villefranche-de-confluent-to-bezier/,Wild,Free to park along the canal and €2 for camper services.  Great view along the canal with colourful barges.  Also aire along the canal
France,Beziers,,Village/Town/City,,€0.00,5,43.335274,3.208102,http://ourbumble.com/villefranche-de-confluent-to-bezier/,Mixed Parking,"Quiet, lose gravel road at the side of the canal and within minutes of town centre.  Right at the side of an old disused lock."
Germany,Alpen,,Countryside,,€0.00,48,51.563234,6.485747,http://ourbumble.com/3-countries-in-1-day/,Mixed Parking,"Parking area off the main road, no facilities but nice views over the fields, hard surface with a very slight slope in places. "
Germany,Munster,Freilichtmuseum Muhlenhof,Village/Town/City,Trash,€0.00,75,51.9504,7.596256,http://ourbumble.com/amps-down-then-up-to-munster/,Mixed Parking,"Flat car park with small bays set amongst trees, bushes and lawned area.  No services and free to park with no time restrictions.  About 2-3km in to centre.Sport facility offers toilets and fresh water"
Germany,Julich,,Village/Town/City,"Fresh WaterGrey WaterBlack WaterTrashToiletsShowersElectric",€8.50,,50.92336,6.34041,http://ourbumble.com/cologne-to-uk/,Rest Area & Services,"Good Aire with clean facilities, good shower block located at one end, close to a large park area. Some pitches block paved, most on a large grassy area with no electricity posts. Price includes electricity though."
Germany,Bremen,Kuhhirtenweg,Village/Town/City,"Fresh WaterGrey WaterBlack WaterTrashToiletsShowersElectric",€13.00,2,53.065284,8.820188,http://ourbumble.com/fairytale-city-of-breman/,Campsite,"Campsite 1.2km from centre.  Hard ground, loose gravel surface. Toilet blocks and showers additional charge €1. Electric additional chargeat approx €0.10 per hour. Fresh water €1 for 100 litre. Staff extremely helpful and friendly with city map and info. Fresh bread can be ordered daily and delivered to the door.01739850092"
Germany,Plon,,Lake,"Fresh WaterGrey WaterTrash",€5.00,19,54.152817,10.403975,http://ourbumble.com/fifty-shades-of-grey/,Rest Area & Services,Dedicated camper parking with the grounds of a larger car park.  Fresh and grey water facilities located at the entrance of the main car park.  Hard surface with nice views over the lake.
Germany,Lindau,,,,€20.00,403,47.558092,9.7006,http://ourbumble.com/how-to-zoom-through-5-countries-in-1-day/,Rest Area,With fresh water
Germany,Bad Waldsee,Hymer Dealer,Village/Town/City,Electric,€0.00,609,47.92937,9.761676,http://ourbumble.com/krugzell-to-cologne/,Mixed Parking,Small number of parking bays for motorhomes visiting service centre. Electric €1 for 2000w.
Germany,Wolfegg,,Village/Town/City,"Fresh WaterGrey WaterBlack WaterTrashElectricWi-Fi",€5.00,677,47.816007,9.797776,http://ourbumble.com/krugzell-to-cologne/,Rest Area & Services,"Aire at the back of car park.  Five minutes walk to village, church, Schloss, museums.  Tourist office has free wifi with good connection.In addition to €5 for overnight stay the facilities offer Water €1 for 80lElectric €0.50 for 1000wVery quiet and peaceful location."
Germany,Weingarten,,Village/Town/City,"Fresh WaterGrey WaterBlack WaterElectric",€0.00,449,47.810354,9.63041,http://ourbumble.com/krugzell-to-cologne/,Rest Area & Services,"Oblong strip at the side of the main coach and car park.  Parking bays divided by tree.  On loose gravel and grass.Empty grey and black €1Fresh water €1 for 100l"
Germany,Meersburg,,Village/Town/City,"Fresh WaterGrey WaterBlack WaterTrashToiletsElectric",€6.00,482,47.701636,9.27195,http://ourbumble.com/krugzell-to-cologne/,Rest Area & Services,"Three aires/ car parks on one road, all approximately 1 kilometre from village centre. 1. Left at the roundabout and the largest of the 3 aires. €10 per night. 2. Right at the roundabout €10 per night. 3. Just after the no 2 behind fire station €6 per night. All aires are pay and display, not manned and no barriers.  1 and 2 have Euro service point upon entry\exit for additional fee. All loose gravel and stone."
Germany,Tengen,,Village/Town/City,,€0.00,635,47.816407,8.660692,http://ourbumble.com/krugzell-to-cologne/,Mixed Parking,"Large, concrete & stone car park.  No facilities and permits overnight parking."
Germany,Schluchsee,,Lake,"Fresh WaterGrey WaterBlack WaterTrashElectric",€0.00,20,47.814878,8.1180478,http://ourbumble.com/krugzell-to-cologne/,Rest Area & Services,Nice aire for €10 24 hours plus electric and services.  Park around the corner for free.
Germany,Feldberg,,Countryside,,€0.00,1278,47.861016,8.035128,http://ourbumble.com/krugzell-to-cologne/,Mixed Parking,Dusty carpark but free with no overnight restrictions.  
Germany,Sindelfingen,,Village/Town/City,,€0.00,450,48.706313,9.027543,http://ourbumble.com/krugzell-to-cologne/,Mixed Parking,Not the best parking spot but safe and quiet.  It is the main hymer dealer and test centre in Stuttgart. Parking inside or outside of the barriers.
Germany,Stuttgart,,Village/Town/City,"Fresh WaterTrash",€1.50,275,48.79859,9.185381,http://ourbumble.com/krugzell-to-cologne/,Mixed Parking,"Street parking at side of college and cemetery. 1km to main historical elements of Stuttgart.  Quiet and if you park at the end of the road it is level. Paid parking 8-18 at €1.50 for 2 hours. Side gate to cemetery for fresh waterTop of street is the main road and you can catch tram to centre or walk through gardens."
Germany,Stuttgart,,Village/Town/City,Trash,€0.00,402,48.696394,9.185608,http://ourbumble.com/krugzell-to-cologne/,Mixed Parking,"Car park next to the airport, there is also an Aire next to it with full services, cost unknown for the Aire."
Germany,Ludwigsburg,,Village/Town/City,"Fresh WaterGrey WaterBlack WaterTrashElectric",€3.00,,48.8934,9.19754,http://ourbumble.com/krugzell-to-cologne/,Mixed Parking,"Car park 200m away from the main sights. Excellent services, electricity is 50 cents for 1/2 KwCosts are €10 for 24 hours but using the parking machine is much cheaper."
Germany,Eppingen,,Village/Town/City,Trash,€0.00,,49.17115,8.94185,http://ourbumble.com/krugzell-to-cologne/,Mixed Parking,"Small car park behind the bank, very quite but also a recycling point."
Germany,Neckargemund,,Village/Town/City,,€0.00,,49.39622,8.79543,http://ourbumble.com/krugzell-to-cologne/,Mixed Parking,Free car park next to Asci campsite. Right on the river with lovely views and a pleasant town to visit.
Germany,Neckargemund,,Village/Town/City,,€0.00,,49.39518,8.78828,http://ourbumble.com/krugzell-to-cologne/,Mixed Parking,Parking area behind the Rathus. 5 minutes walk into the town centre.
Germany,Heidelberg,,,"Fresh WaterToilets",€0.00,,49.41239,8.68099,http://ourbumble.com/krugzell-to-cologne/,Mixed Parking,"Roadside parking on the opposite side of the river to Heidelberg, great views and close to the centre."
Germany,Worms,,Village/Town/City,,€0.00,,49.63458,8.375006,http://ourbumble.com/krugzell-to-cologne/,Mixed Parking,"Parking area with a camper stop next door, nice walks along the Rhine and 15 mins walk to the centre."
Germany,Oppenheim,Womoland Oppenheim,Village/Town/City,,€0.00,,49.85624,8.364792,http://ourbumble.com/krugzell-to-cologne/,Mixed Parking,"Aire on the edge of town, Grass area and stone. Toilet block was closed in November. Electricity is €3"
Germany,Bacharach,,Village/Town/City,"Fresh WaterGrey WaterBlack WaterTrashElectric",€5.00,,50.05492,7.77222,http://ourbumble.com/krugzell-to-cologne/,Rest Area & Services,Aire located right by the river. Gravel ground and close to the town centre. Electricity is €2.50
Germany,Spay,,Village/Town/City,,€0.00,,50.26106,7.6466,http://ourbumble.com/krugzell-to-cologne/,Mixed Parking,"Roadside parking in the centre of town, water is available at the cemetery just down the road, nice walks or cycle along the edge of the Rhine. Very close the rail tracks but the trains are very quiet."
Germany,Koblenz,,Village/Town/City,Trash,€0.00,,50.36547,7.57451,http://ourbumble.com/krugzell-to-cologne/,Mixed Parking,"Large car park 3km from centre of the sights, level gravel surface also used by coaches. Surrounded by businesses so quite secure. Just walk along the river bank to get straight into centre. Lidl 400m away on main road behind."
Germany,Maria Laach,Maria Laach Abbey,Countryside,"TrashToiletsFresh Water",€5.00,,50.40362,7.25401,http://ourbumble.com/krugzell-to-cologne/,Mixed Parking,"Car park opposite the Abbey close to the Laacher See lake. Probably very busy in summer, campers also allowed next to the campsite 2 miles down the road also €5."
Germany,Sinzig,,Village/Town/City,,€0.00,,50.54651,7.24864,http://ourbumble.com/krugzell-to-cologne/,Mixed Parking,"Small car park in town for both cars and campers, Level gravel surface backing onto small playing field. Very quiet at night. Centre approx 1km away."
Germany,Bonn,,,,€0.00,,50.70961,7.13891,http://ourbumble.com/krugzell-to-cologne/,Rest Area,"Camper only area outside of centre, Next to major road so some noise but not to bad. Pleasant park just down the road."
Germany,Cologne Koln,,,,€0.00,,50.95575,6.97393,http://ourbumble.com/krugzell-to-cologne/,Wild,Park along the riverbank close to the zoo area. Town is 2km away but walkway straight there. Parking all along this stretch but free nearer the zoo end near the road bridge. and €4 per day elsewhere.
Germany,Lubeck,Media ,Village/Town/City,,€6.00,1,53.8716,10.678895,http://ourbumble.com/lack-lustre-lubeck/,Mixed Parking,"Media docks dedicated camper parking located in centre. Hourly rate €1.30 or €6 for the day.  No services but the coach park just opposite does offer toilet facilities. Holds around 12 motorhomes.  Flat, tarmac surface."
Germany,Bosau,,Village/Town/City,,€0.00,20,54.105433,10.427924,http://ourbumble.com/lack-lustre-lubeck/,Mixed Parking,Little village with a number of small parking spaces dotted around the village.
Germany,Ramsau,,Village/Town/City,"Fresh WaterTrashToiletsWi-Fi",€0.00,655,47.605812,12.908802,http://ourbumble.com/lake-jansa-to-lofer/,Mixed Parking,"Tourist information car park. Limited to 2 hours between 8am and 8pm but after 8pm no restrictions.  Toilet behind TI office.  Flat tarmac and reasonable bays for motorhomes.Just off main road but it is a quiet town, so quiet at night."
Germany,Königssee,,Lake,,€5.00,604,47.593066,12.988111,http://ourbumble.com/lofer-to-krugzell/,Mixed Parking,"Large car park with motorhome permitted parking to the left behind the garage.  The garage also sells GPL.  Stunning views to hills and lake only 10 minutes walk away.A few grids for emptying grey waste but no toilet facilities.  1 hour, €2 up to €5 for the day."
Germany,Obersalzberg,Documentation Centre,Countryside,Trash,€0.00,933,47.630839,13.041076,http://ourbumble.com/lofer-to-krugzell/,Mixed Parking,Large car park for visiting the Documentation centre.  P2 is free and no restrictions on overnight  camping.  Reasonably flat but it can run down in places.  If you park near the edge overlooking the centre best views for sunrise.
Germany,Berchtesgadener,,Village/Town/City,,€0.50,619,47.635746,13.005184,http://ourbumble.com/lofer-to-krugzell/,Mixed Parking,Small carpark right in centre of old town looking up to eagles nest.  €0.50 per hour
Germany,Maria Gern,,Countryside,,€0.00,743,47.653587,13.002803,http://ourbumble.com/lofer-to-krugzell/,Mixed Parking,Parking on gradient for visiting Maria Gern church.  Please note the car park at the bottom of the road does not permit campers.  
Germany,Bischofswiesen,,Countryside,,€0.00,668,47.643401,12.984513,http://ourbumble.com/lofer-to-krugzell/,Mixed Parking,"Big car park for the spa facility but only open during peak season. Out of season people park up and walk to Maria Gern church, which takes around an hour."
Germany,Ruhpolding,,Countryside,,€0.00,690,47.72494,12.658568,http://ourbumble.com/lofer-to-krugzell/,Mixed Parking,Large gravel car park mainly used by walkers and runners.  Nice and quiet but no amenities.  Lumberjack museum €4 pp.
Germany,Reit im Winkl,,Countryside,"ElectricToiletsTrashBlack WaterGrey WaterFresh Water",€13.00,668,47.669647,12.481615,http://ourbumble.com/lofer-to-krugzell/,Rest Area & Services,"End of autumn and the site is closed but you can use the facilities for €13.00 per night.  Electric is an extra €12.00The grounds and setting are nice but a tad expensive giving everything is shut including reception."
Germany,Oberaudorf,,Countryside,Trash,€0.00,734,47.672002,12.086872,http://ourbumble.com/lofer-to-krugzell/,Mixed Parking,Loose gravel parking space in middle of country.  Small lake and waterfall. Ideal for walking and hiking.  No limitations for overnight.
Germany,Flintsbach,,Countryside,,€0.00,1009,47.685178,12.056983,http://ourbumble.com/lofer-to-krugzell/,Mixed Parking,Small loose gravel car park. Ideal for walking or hiking in the area.  Popular with bikers at weekend.  No restrictions.
Germany,Schleirsee,,Lake,,€0.00,759,47.712379,11.869984,http://ourbumble.com/lofer-to-krugzell/,Mixed Parking,"Loose gravel car park at the edge of the lake. Just off main road, which can be busy at weekends. As you turn on to the car park you are better to park to the left, as the right hand side is busier with workers."
Germany,Garmisch Partenkirchen,,Village/Town/City,,€0.00,753,47.482513,11.119932,http://ourbumble.com/lofer-to-krugzell/,Wild,"Located just to the side of the sky jump.  Plenty of reasonable priced parking at the ski centre but it is unclear if overnight parking permitted, so we moved to spot just to the side for evening.  €2.50 for 12 hour day ticket."
Germany,Ettal,,Village/Town/City,Fresh Water,€2.00,847,47.567671,11.096769,http://ourbumble.com/lofer-to-krugzell/,Mixed Parking,"Small car park at the side of the cemetery.  €1 for 4 hours or €2 for 24 hrs.  No restrictions on parking but you will need you chocks to get level.Water point inside cemetery."
Germany,Oberammergau,,Village/Town/City,Trash,€0.00,829,47.595214,11.063918,http://ourbumble.com/lofer-to-krugzell/,Mixed Parking,Free car park for cars and buses. Just at the side of the river and only minutes from the village centre.
Germany,Halblech,,Lake,,€0.00,800,47.614006,10.805273,http://ourbumble.com/lofer-to-krugzell/,Mixed Parking,Large grass car park at base of cable car.  Great views over countryside and lake. No restrictions.
Germany,Hausern,,Countryside,"TrashFresh Water",€0.00,812,47.607747,10.710263,http://ourbumble.com/lofer-to-krugzell/,Mixed Parking,"Small church lay by.  On a small incline but flat spots in the middle.  Tarmac with trees for shelter. Next to main road, so can be busy.  Water tap at the gate entrance."
Germany,Krugzell,,Countryside,,€0.00,640,47.793868,10.259379,http://ourbumble.com/lofer-to-krugzell/,Wild,"Quiet lay by beside the river.  Tarmac with slight tilt, so need chocs.  Nice views over hills will alps in background."
Germany,Schwedeneck,,Beach,,€0.00,55,54.481912,10.119813,http://ourbumble.com/schloss-and-seaweed/,Mixed Parking,"Parking area near the beach, restaurant at the bottom of the lane/beach access."
Germany,Damp,,Countryside,,€0.00,2,54.578204,10.01705,http://ourbumble.com/schloss-and-seaweed/,Mixed Parking,"Park and ride car park is free but if you need services then right at the end a camper parking at €14 plus electric, water, showers."
Germany,Raesfeld,,Village/Town/City,"Fresh WaterGrey WaterBlack WaterTrashToiletsElectric",€8.00,39,51.765465,6.830634,http://ourbumble.com/splendid-schloss-raesfeld/,Rest Area & Services,"Camper parking facility with dedicated bays and hard surface. €8 for 24 hours, €1 for 12h of electricity and €1 for 100 litres water. Grey and black facilities as well as public toilet block.Great location as set within grounds of Raesfeld schloss."
Germany,Raesfeld,,Village/Town/City,,€0.00,57,51.761403,6.826678,http://ourbumble.com/splendid-schloss-raesfeld/,Mixed Parking,Parking next to Raesfeld Schloss. Free level car park also next to the wooded area. Nice spot for walks and visit the Schloss. Full facilities at the aire in the town.
Germany,Ludinghausen,Burg vischering,Village/Town/City,Trash,€0.00,49,51.777597,7.440355,http://ourbumble.com/sunshine-in-schloss-land/,Mixed Parking,Big flat Tarmac car park. Set in the grounds of the castle and free to park. Only 5 minutes walk to the centre of the village.
Germany,Visbek,Rathause,Village/Town/City,,€0.00,41,52.836115,8.31353,http://ourbumble.com/the-hunt-for-the-stone-age-graves/,Mixed Parking,"Small, quiet car park located behind the rathause (townhall). Level, sold ground. Off main road, so no road noise or passing people.  Tap located at the side of the town hall."
Germany,Bad Schachen,,,,€0.00,404,47.563719,9.665825,http://ourbumble.com/,Mixed Parking,Parking at entrance is public but further along is part of restaurant 
Germany,Vogt,,,,€0.00,680,47.776086,9.767604,http://ourbumble.com/,Mixed Parking,Behind townhall
Germany,Wolfegg,,Village/Town/City,"Fresh WaterGrey WaterBlack WaterTrashWi-FiElectricToilets",€0.00,676,47.8159,9.797858,http://ourbumble.com/,Rest Area & Services,"Water is 10c for 8 litres or €1 for 80 litres, electric is on 2 posts and is about 50c per kw, free wifi at the tourist office in town which is 2 minutes away."
Germany,Bad Waldsee,Hymer,,,€0.00,601,47.927745,9.758131,http://ourbumble.com/,Mixed Parking,Service centre with free parking and electric. Toilet facilities and water across road at garage
Germany,Bad Waldsee,,,"Fresh WaterGrey WaterBlack WaterTrashElectric",€5.00,597,47.914167,9.760707,http://ourbumble.com/,Mixed Parking & Services,Located near the spa. Fee is €5 plus €2 pp plus electric and water
Germany,Baach,,,,€0.00,542,48.233821,9.46147,http://ourbumble.com/,Mixed Parking,
Germany,,,,,€0.00,788,48.404897,9.256712,http://ourbumble.com/,Mixed Parking,Car park for the castle
Germany,Nurtingrt,,Village/Town/City,"Fresh WaterGrey WaterBlack WaterTrashElectric",€5.00,276,48.636406,9.330619,http://ourbumble.com/,Rest Area,Water is €1 for 50 litres
Germany,Esslingen,Burg Platz,Village/Town/City,Trash,€0.00,311,48.747271,9.310812,http://ourbumble.com/,Rest Area,Large car park with dedicated parking for 3 motorhomes
Germany,Ludwigsburg,,Village/Town/City,"Fresh WaterGrey WaterBlack WaterTrash",€10.00,292,48.894165,9.19696,http://ourbumble.com/,Rest Area & Services,"Schloss car park with dedicated mh parking, Electric is 50c per kw and water 1c per litre."
Germany,Maulbronn,,,,€0.00,250,48.999156,8.805669,http://ourbumble.com/,Rest Area & Services,"Dedicated mh parking spot with electric, toilet facilities. Max stay 48 hours, Electric & water token available from side of the toilet block costing 1€ for 2kw & 100 litres."
Germany,,Bacharach,Lake,"Fresh WaterGrey WaterBlack WaterTrashElectric",€5.00,76,50.055113,7.772008,http://ourbumble.com/,Rest Area & Services,€5 for parking plus €2.50 for electric
Germany,Goar,,,,€0.00,74,50.144228,7.721437,http://ourbumble.com/,Campsite,Lolibrick
Germany,Alken,,,,€0.00,79,50.251135,7.445801,http://ourbumble.com/,Rest Area,Free parking for mh. Max stay 28 hours. Suitable for up to 6 motorhomes
Germany,Broadenbach,,,,€0.00,73,50.227452,7.445376,http://ourbumble.com/,Mixed Parking,
Germany,,,,,€0.00,73,50.227452,7.445376,http://ourbumble.com/,Mixed Parking,
Germany,,,,,€0.00,81,50.16899,7.272113,http://ourbumble.com/,Mixed Parking,
Germany,,,,,€0.00,81,50.16899,7.272113,http://ourbumble.com/,Mixed Parking,
Germany,,,,,€0.00,85,50.154917,7.16862,http://ourbumble.com/,Mixed Parking,Night parking not permitted
Germany,,,,,€0.00,83,50.140497,7.170022,http://ourbumble.com/,Mixed Parking,Parking fee during day
Germany,,,,,€0.00,83,50.138787,7.181828,http://ourbumble.com/,Mixed Parking,
Germany,Ernst,,,,€0.00,85,50.143316,7.219437,http://ourbumble.com/,Mixed Parking,
Germany,,,,,€0.00,85,50.143316,7.219437,http://ourbumble.com/,Mixed Parking,
Germany,Ernst,,,,€9.00,85,50.143316,7.219437,http://ourbumble.com/,Rest Area & Services,Behind wine house
Germany,,,,,€0.00,84,50.117571,7.232255,http://ourbumble.com/,Mixed Parking,
Germany,,,,,€0.00,91,50.112595,7.21036,http://ourbumble.com/,Mixed Parking,
Germany,,,,,€0.00,96,50.093194,7.159895,http://ourbumble.com/,Mixed Parking,
Germany,Eller,,,,€5.00,96,50.099684,7.143584,http://ourbumble.com/,Rest Area & Services,
Germany,Bremm,,,,€0.00,97,50.104444,7.117579,http://ourbumble.com/,Mixed Parking,
Germany,,,,,€0.00,92,50.08052,7.131162,http://ourbumble.com/,Mixed Parking,
Germany,,,,,€0.00,94,50.054106,7.127293,http://ourbumble.com/,Mixed Parking,
Germany,,,,,€0.00,99,50.040577,7.165488,http://ourbumble.com/,Mixed Parking,
Germany,Enkirch,,,,€0.00,103,49.98403,7.121504,http://ourbumble.com/,Mixed Parking,
Germany,,,,,€0.00,101,49.94946,7.112078,http://ourbumble.com/,Mixed Parking,
Germany,Krrov,,,,€0.00,106,49.979586,7.089399,http://ourbumble.com/,Mixed Parking,
Germany,Kinheim,,,,€0.00,106,49.97221,7.057183,http://ourbumble.com/,Rest Area & Services,
Germany,,,,,€0.00,113,49.973226,7.05333,http://ourbumble.com/,Mixed Parking,
Germany,,,,,€0.00,101,49.978934,7.007627,http://ourbumble.com/,Mixed Parking,
Germany,,,,,€0.00,130,49.905299,6.977685,http://ourbumble.com/,Mixed Parking,
Germany,Mosel,,,,€0.00,130,49.905299,6.977685,http://ourbumble.com/,Rest Area & Services,
Germany,Filzen,,,,€9.00,126,49.905989,6.976883,http://ourbumble.com/,Rest Area & Services,Good pitches and price includes electric and water. Small supermarket in village
Germany,,,,,€0.00,291,49.910394,6.900694,http://ourbumble.com/,Mixed Parking,
Germany,Trier,Treviris,,,€10.60,143,49.741671,6.625037,http://ourbumble.com/,Rest Area & Services,"Water & electric extra. 70c per kw, 10c per 10 litres. Parking charged by the hour and overnight so €10.60 for 24 hours."
Greece,Molos,,Beach,"ToiletsTrashFresh WaterShowers",€0.00,2,38.833475,22.652593,http://ourbumble.com/ancient-world-delphi/,Wild,Gravel area next to beach.
Greece,Thermoplyom,,,"Fresh WaterGrey WaterTrash",€0.00,32,38.796398,22.536036,http://ourbumble.com/ancient-world-delphi/,Mixed Parking & Services,"The hot gates monument, water available at one end of the monument."
Greece,,,,,€0.00,511,38.777286,22.460035,http://ourbumble.com/ancient-world-delphi/,Wild,"Gravel lay by, good as lunch stop with super views."
Greece,Delphi,Museum,,,€0.00,582,38.480227,22.50003,http://ourbumble.com/ancient-world-delphi/,Mixed Parking,"Parking at museum next to main road, not idea and very busy in the day, close to town centre though."
Greece,Delphi,Apollo,Countryside,"Fresh WaterGrey WaterBlack WaterToiletsShowersTrashElectricWi-Fi",€19.00,481,38.48271,22.475638,http://ourbumble.com/ancient-world-delphi/,Campsite,Good campsite with stunning views.
Greece,Chalkoutsi,,Harbour,,€0.00,2,38.332342,23.736165,http://ourbumble.com/autumn-on-the-remote-coves-of-attica-peninsula-greece/,Wild,"Shingly beach to right, harbour to left"
Greece,Oropós,Amphiaraion sanctuary,Countryside,,€0.00,184,38.289692,23.843421,http://ourbumble.com/autumn-on-the-remote-coves-of-attica-peninsula-greece/,Mixed Parking,Limited parking but OK if you get there when it's closed and have to wait.
Greece,,,,,€0.00,17,38.289184,23.930098,http://ourbumble.com/autumn-on-the-remote-coves-of-attica-peninsula-greece/,Wild,On street parking next to little beach. Would be very busy in summer.
Greece,Limiona,,Beach,,€0.00,7,38.28781,23.936653,http://ourbumble.com/autumn-on-the-remote-coves-of-attica-peninsula-greece/,Wild,On street parking next to little beach. Would be very busy in summer.
Greece,Parallia Varnava,,Beach,,€0.00,-9,38.26289,23.977789,http://ourbumble.com/autumn-on-the-remote-coves-of-attica-peninsula-greece/,Wild,On street parking next to pebble beach. Would be busy in summer.
Greece,Nefplio,,Harbour,Trash,€0.00,-6,37.570822,22.800865,http://ourbumble.com/beginning-modern-greece-nefplion/,Mixed Parking,Large parking area on port and marina
Greece,Nefplio,,Beach,,€0.00,1,37.5904,22.765697,http://ourbumble.com/beginning-modern-greece-nefplion/,Wild,Parking on the beach
Greece,Nea Kios,,,,€0.00,1,37.584242,22.744927,http://ourbumble.com/beginning-modern-greece-nefplion/,Mixed Parking,Car park close to beach
Greece,Kiveriou,,Beach,"Fresh WaterTrash",€0.00,-5,37.527674,22.731542,http://ourbumble.com/beginning-modern-greece-nefplion/,Wild,"Small pebble area next to marina, water available on roadside."
Greece,Kivario,,,"Fresh WaterGrey WaterBlack WaterTrashToilets",€0.00,13,37.524915,22.72539,http://ourbumble.com/beginning-modern-greece-nefplion/,Service Only,"Large church has fresh water, huge drain and communal toilet facilities under the main entrance"
Greece,,,Countryside,Fresh Water,€0.00,71,37.461725,22.746913,http://ourbumble.com/beginning-modern-greece-nefplion/,Mixed Parking,"Rest area beside main road, great views"
Greece,Astros,,Beach,"Fresh WaterToiletsTrash",€0.00,4,37.445002,22.747972,http://ourbumble.com/beginning-modern-greece-nefplion/,Wild,Parking by the beach
Greece,Astros,,Beach,"Fresh WaterTrash",€0.00,17,37.406332,22.756618,http://ourbumble.com/beginning-modern-greece-nefplion/,Wild,
Greece,,,Beach,,€0.00,22,37.287922,22.840069,http://ourbumble.com/beginning-modern-greece-nefplion/,Mixed Parking,Rest area with great views
Greece,Poulithra,,Harbour,,€0.00,1,37.115584,22.902673,http://ourbumble.com/beginning-modern-greece-nefplion/,Mixed Parking,Parking at a small harbour
Greece,Mari,,Countryside,,€0.00,609,37.030919,22.827534,http://ourbumble.com/beginning-modern-greece-nefplion/,Mixed Parking,"Small car park by a church, not ideal but OK to break a journey."
Greece,Kallikrateia,,Harbour,,€0.00,5,40.24741,23.257158,http://ourbumble.com/caught-rare-meteorological-phenomenon/,Wild,Parking right on the beach.
Greece,Kallikrateia,,Beach,,€0.00,20,40.320708,23.031933,http://ourbumble.com/caught-rare-meteorological-phenomenon/,Wild,Grassy area next to beach
Greece,Thesilonika,,Village/Town/City,"Fresh WaterGrey WaterBlack WaterTrashToiletsElectricWi-Fi",€0.00,27,40.502606,22.971196,http://ourbumble.com/caught-rare-meteorological-phenomenon/,Rest Area & Services,"Free overnight parking at camping shop. Open 9-9 M-F, 9-5 S and shut Sunday"
Greece,Vergina,,Village/Town/City,,€0.00,123,40.484291,22.322508,http://ourbumble.com/footsteps-alexander-great/,Mixed Parking,"Parking for archaeological site. Kiosk at the entrance but clearly shut down, we assume for winter? "
Greece,Agioi Theodoroi,,Countryside,Trash,€0.00,785,39.984732,21.502446,http://ourbumble.com/for-our-eyes-only-meteora/,Wild,"On way to Meteora, On street parking, Only used because it was late, very quiet though."
Greece,Meteora,,Countryside,,€0.00,546,39.725509,21.632287,http://ourbumble.com/for-our-eyes-only-meteora/,Wild,Fantastic spot and views. Water available from the monastery.
Greece,Amfipoli,,,"Grey WaterFresh WaterTrashShowers",€0.00,25,40.775702,23.805293,http://ourbumble.com/greece-shore-thing/,Wild,Parking on the beach Including fresh water and shower.
Greece,,,Beach,Fresh Water,€0.00,-0,40.764127,23.77289,http://ourbumble.com/greece-shore-thing/,Wild,Parking beside the beach
Greece,Agios Georgios,,Beach,"Fresh WaterTrash",€0.00,12,40.757012,23.756207,http://ourbumble.com/greece-shore-thing/,Wild,Small sandy harbour with taverna.
Greece,,Camping Achilles,,,€0.00,11,40.757571,23.750941,http://ourbumble.com/greece-shore-thing/,Campsite,"We have not used it just drove by, cost unknown."
Greece,,,,,€0.00,13,40.75586,23.738024,http://ourbumble.com/greece-shore-thing/,Wild,"Beach parking, bit scruffy."
Greece,,,Beach,"TrashToiletsShowersFresh Water",€0.00,-8,40.747033,23.727895,http://ourbumble.com/greece-shore-thing/,Wild,Access to beach area.
Greece,,Asprovalta Camping,,,€0.00,-11,40.735689,23.716196,http://ourbumble.com/greece-shore-thing/,Campsite,Not used so no comments or price.
Greece,Stavros,,,,€0.00,20,40.712397,23.704576,http://ourbumble.com/greece-shore-thing/,Wild,Parking close to beach.
Greece,Stavros,,,"TrashFresh Water",€0.00,1,40.665423,23.701824,http://ourbumble.com/greece-shore-thing/,Mixed Parking,Parking close to beach.
Greece,Stavros,,,,€0.00,13,40.66368,23.705069,http://ourbumble.com/greece-shore-thing/,Wild,"Recreation area close to beach, some shade too."
Greece,Olympiada,,,Trash,€0.00,8,40.591226,23.787952,http://ourbumble.com/greece-shore-thing/,Mixed Parking,Small harbour side gravel parking
Greece,Olympiada,,Beach,"TrashShowersToilets",€0.00,1,40.585631,23.79614,http://ourbumble.com/greece-shore-thing/,Wild,"Just outside Olympiada, beach side parking"
Greece,,,,,€0.00,0,40.585807,23.795723,http://ourbumble.com/greece-shore-thing/,Wild,"Some areas soft sand, others hard sand. We got stuck in sand!"
Greece,,,Beach,,€0.00,7,40.585788,23.795835,http://ourbumble.com/greece-shore-thing/,Wild,
Greece,,,,,€0.00,259,40.521574,23.823212,http://ourbumble.com/greece-shore-thing/,Wild,
Greece,Aristotelis,Sculpture Beach,Beach,,€0.00,11,40.417749,23.860348,http://ourbumble.com/greece-shore-thing/,Wild,Remote location with odd weird rock
Greece,Ierissos,,,,€0.00,-4,40.410486,23.865138,http://ourbumble.com/greece-shore-thing/,Wild,
Greece,Ierissos,,,,€0.00,15,40.401068,23.877382,http://ourbumble.com/greece-shore-thing/,Mixed Parking,
Greece,Aristotelis,,Beach,,€0.00,37,40.398535,23.883995,http://ourbumble.com/greece-shore-thing/,Wild,
Greece,,,,,€0.00,207,40.387235,23.815692,http://ourbumble.com/greece-shore-thing/,Wild,Stopping point off the main road if your passing. OK for lunch with good views
Greece,Metagitsa,,Beach,,€0.00,14,40.303645,23.694301,http://ourbumble.com/greece-shore-thing/,Wild,Parking next to the beach.
Greece,Ormos Panagias,,Harbour,"TrashFresh Water",€0.00,76,40.235312,23.732057,http://ourbumble.com/greece-shore-thing/,Wild,"Parking on a small marina, Fresh fish available and a few tavernas close by."
Greece,Livrochio,,Beach,,€0.00,-6,40.248161,23.722852,http://ourbumble.com/greece-shore-thing/,Wild,"Secluded bay, water available at Ormos Panagias"
Greece,Livorchio,,Beach,Trash,€0.00,7,40.248335,23.722722,http://ourbumble.com/greece-shore-thing/,Wild,"On beach. Very quiet, water available at Ormos Panagias"
Greece,,,,,€0.00,782,37.082503,22.311035,http://ourbumble.com/hell-autumn-ride-langada-pass/,Mixed Parking,Good place to park up and walk to caves
Greece,Mikri Mantineia,,,,€0.00,-10,36.980156,22.150036,http://ourbumble.com/hell-autumn-ride-langada-pass/,Wild,Straight on beach
Greece,Kitries,,Beach,"Fresh WaterTrashToiletsShowers",€0.00,-3,36.933811,22.144025,http://ourbumble.com/hell-autumn-ride-langada-pass/,Wild,"Small gravel road leading down to beach. Sheltered with trees. Small taverna a few meters away, which closes in winter"
Greece,Santova,,Beach,"Fresh WaterTrashShowers",€0.00,-4,36.94932,22.143393,http://ourbumble.com/hell-autumn-ride-langada-pass/,Wild,Quiet stretch of beach. Pebble and sand. A couple of tavernas. Parking bays on side of road with no restrictions
Greece,Akrogialio,,Beach,Trash,€0.00,-1,36.954065,22.14451,http://ourbumble.com/hell-autumn-ride-langada-pass/,Wild,Pebble cove 
Greece,Kalamata,Yachting club,Harbour,"Fresh WaterGrey WaterBlack WaterTrashToiletsElectricShowers",€0.00,-7,37.024198,22.102232,http://ourbumble.com/hell-autumn-ride-langada-pass/,Mixed Parking & Services,"Marina / Yachting  club. Quiet parking space behind skippers restaurant. Toilets, shower and laundry service. Laundry tokens from marina office or security cabin. Electric points dotted all around site for use by boat owners...we think you can use if you pay but how much, not sure.  Toilets are locked after 6pm but ladies generally left open"
Greece,Nikiti,,Harbour,Fresh Water,€0.00,28,40.218714,23.661807,http://ourbumble.com/hoggin-coast-sithonia/,Mixed Parking,"Great spot on the marina, water available at the begging of the town"
Greece,Spatheis,,,,€0.00,-2,40.17676,23.715566,http://ourbumble.com/hoggin-coast-sithonia/,Campsite,Right on beach
Greece,Elia Nikitis,Camping Mitari,,,€0.00,32,40.145534,23.73822,http://ourbumble.com/hoggin-coast-sithonia/,Campsite,Not used so no comment or costs.
Greece,Kalogrias,,Beach,,€0.00,29,40.133984,23.752764,http://ourbumble.com/hoggin-coast-sithonia/,Wild,
Greece,,,,,€0.00,6,40.099222,23.775199,http://ourbumble.com/hoggin-coast-sithonia/,Wild,Roadside parking at the beach.
Greece,Marmaras,,Beach,"Fresh WaterTrash",€0.00,7,40.090734,23.791439,http://ourbumble.com/hoggin-coast-sithonia/,Wild,"Tarmac section leading on to beach, water available near the old boat area."
Greece,Marmaras,,Beach,,€0.00,23,40.087316,23.792378,http://ourbumble.com/hoggin-coast-sithonia/,Mixed Parking,Right on beach
Greece,Toroni,,Beach,,€0.00,-4,39.986219,23.90238,http://ourbumble.com/hoggin-coast-sithonia/,Mixed Parking,
Greece,Porto Koufo,,Harbour,"TrashFresh Water",€0.00,-2,39.970785,23.919114,http://ourbumble.com/hoggin-coast-sithonia/,Wild,
Greece,Kalamitsi,,Beach,,€0.00,-7,39.990298,23.98977,http://ourbumble.com/hoggin-coast-sithonia/,Wild,On the beach
Greece,Piraeus,Parkopolis,Village/Town/City,Fresh Water,€13.00,36,37.947403,23.645619,http://ourbumble.com/locked-worlds-oldest-city-athens/,Mixed Parking & Services,"Secure car park in town, owner is very friendly and helpful. Waste water can be emptied in a drain around the corner."
Greece,,,,,€0.00,2,36.728601,23.026423,http://ourbumble.com/most-perfect-tranquil-greek-rock-monemvasia/,Wild,"Great wild spot on the beach, water available from the shower. Archaeological site also behind."
Greece,,,,,€0.00,15,36.705841,23.030892,http://ourbumble.com/most-perfect-tranquil-greek-rock-monemvasia/,Wild,Look out to sea
Greece,Monemvasis,,Beach,"Fresh WaterShowers",€0.00,1,36.688397,23.035567,http://ourbumble.com/most-perfect-tranquil-greek-rock-monemvasia/,Mixed Parking,Small gravel area looking out to sea.
Greece,Monemvasis,,Harbour,"TrashFresh WaterElectricToiletsWi-Fi",€0.00,-4,36.686114,23.039606,http://ourbumble.com/most-perfect-tranquil-greek-rock-monemvasia/,Mixed Parking & Services,Parking on the harbour side. Electric on the street light. Toilets across the road in portaloo
Greece,,,Countryside,"Fresh WaterGrey WaterTrashBlack Water",€0.00,89,36.856877,22.783266,http://ourbumble.com/most-perfect-tranquil-greek-rock-monemvasia/,Service Only,Service station.
Greece,Itea,,Harbour,,€0.00,-13,38.431661,22.41994,http://ourbumble.com/secret-lives-greek-monks-1000-years-history/,Mixed Parking,"Large tarmac car park at the edge of town by a harbour wall, beach around corner."
Greece,Antikyra,,,,€0.00,7,38.377765,22.634968,http://ourbumble.com/secret-lives-greek-monks-1000-years-history/,Mixed Parking,On street parking in pretty little town.
Greece,Distomo,Loukas,,,€0.00,484,38.395414,22.74589,http://ourbumble.com/secret-lives-greek-monks-1000-years-history/,Mixed Parking,"Monastery Loukas. Closest main town is Distomo, but actually Located between small villages of Steiri and Kyriakio."
Greece,Mystras,,Countryside,,€0.00,281,37.07094,22.37958,http://ourbumble.com/secret-spartan-path-mount-taygetos/,Wild,Patch of grass at side of orange groves looking up to mountains
Greece,Mystras,,Countryside,"TrashFresh Water",€0.00,314,37.069575,22.377791,http://ourbumble.com/secret-spartan-path-mount-taygetos/,Mixed Parking,Camera museum. Free but no overnight permitted
Greece,Mystras,Site entrance,Countryside,Trash,€0.00,359,37.076749,22.368951,http://ourbumble.com/secret-spartan-path-mount-taygetos/,Mixed Parking,"Two entrances to the site. This is the first gate, which is mid way up the hill. Flat, small carpark with no restriction"
Greece,Epidavros,,Beach,"Fresh WaterTrash",€0.00,0,37.64126,23.159089,http://ourbumble.com/step-back-time-argolis-peninsula/,Wild,Small pebble cove
Greece,Kalloni,,,,€0.00,8,37.545265,23.303966,http://ourbumble.com/step-back-time-argolis-peninsula/,Wild,Little fishing marina over looking Megalochori headland
Greece,Troizinia,,,,€0.00,9,37.49523,23.454922,http://ourbumble.com/step-back-time-argolis-peninsula/,Wild,Spare land with concrete slip over looking lovely Poros
Greece,Plaka,,Beach,,€0.00,6,37.488398,23.469158,http://ourbumble.com/step-back-time-argolis-peninsula/,Wild,Next to beach
Greece,Pergari,,Beach,,€0.00,4,37.413646,23.454267,http://ourbumble.com/step-back-time-argolis-peninsula/,Wild,Secluded spot looking out to Hydra 
Greece,Pigadi,,Beach,,€0.00,5,37.411285,23.374194,http://ourbumble.com/step-back-time-argolis-peninsula/,Wild,Quiet seafront with taverna and a few rooms
Greece,Ermioni,,Beach,"Fresh WaterElectricTrash",€0.00,5,37.406996,23.270958,http://ourbumble.com/step-back-time-argolis-peninsula/,Wild,Large gravel area next to beach
Greece,Ermioni,,Harbour,,€0.00,5,37.386619,23.247166,http://ourbumble.com/step-back-time-argolis-peninsula/,Mixed Parking,Roadside parking next to quay
Greece,Ermioni,,,,€0.00,10,37.382896,23.248291,http://ourbumble.com/step-back-time-argolis-peninsula/,Mixed Parking,Parking spot near some nice tavernas and next to the boats.
Greece,Porto Cheli,,Harbour,Trash,€0.00,-1,37.326782,23.14382,http://ourbumble.com/step-back-time-argolis-peninsula/,Mixed Parking,Parking area on the harbour.
Greece,Porto Cheli,,Beach,,€0.00,-3,37.336522,23.125451,http://ourbumble.com/step-back-time-argolis-peninsula/,Wild,"Pebble beach, very quiet."
Greece,,,,Fresh Water,€0.00,70,37.364936,23.162363,http://ourbumble.com/step-back-time-argolis-peninsula/,Service Only,Stone Fountain with fresh water.
Greece,,,,,€0.00,2,37.410077,23.129881,http://ourbumble.com/step-back-time-argolis-peninsula/,Wild,Spare land facing the boat yard
Greece,Koilada,,Harbour,"TrashFresh Water",€0.00,-2,37.417354,23.127027,http://ourbumble.com/step-back-time-argolis-peninsula/,Mixed Parking,Small port
Greece,Tolo,,Harbour,,€0.00,13,37.514802,22.856776,http://ourbumble.com/step-back-time-argolis-peninsula/,Mixed Parking,Car park next to marina with fresh water.
Greece,Tolo,,,,€0.00,18,37.528422,22.872681,http://ourbumble.com/step-back-time-argolis-peninsula/,Wild,"Gravel area overlooking the see, lots of campsite close by too."
Greece,Karathonas,,Beach,"TrashFresh WaterToiletsShowers",€0.00,-2,37.542535,22.822946,http://ourbumble.com/step-back-time-argolis-peninsula/,Wild,Fresh water points along the beach with portoloos in summer
Greece,Ancient Korinthos,,Countryside,"Fresh WaterGrey WaterBlack WaterWi-FiElectricShowersToiletsTrash",€10.00,18,37.908339,22.881436,http://ourbumble.com/trick-treat-ancient-corinth/,Rest Area & Services,Family run aire with old chap. Really friendly
Greece,Thraki,Camping Castello,Beach,,€0.00,17,40.125666,23.765733,http://ourbumble.com/,Campsite,Not used so no comment or costs.
Greece,,Armenistis Camping & Bungalows,Beach,"Fresh WaterGrey WaterBlack WaterTrashToiletsShowersElectricWi-Fi",€0.00,-17,40.152272,23.91373,http://ourbumble.com/,Campsite,Not used so no comments.
Greece,,Camping Lacara,,,€0.00,21,40.170188,23.854353,http://ourbumble.com/,Campsite,Not used so no comments.
Greece,,,,"Fresh WaterTrash",€0.00,136,40.210287,23.689168,http://ourbumble.com/,Service Only,Fuel station with lpg & water.
Greece,Olynthus,,,,€0.00,35,40.260395,23.479565,http://ourbumble.com/,Wild,Gravel lay by on the coast road.
Greece,,,,,€0.00,2,40.246163,23.261348,http://ourbumble.com/,Wild,"Parking by the beach, Grass & sand surface."
Greece,,,,,€0.00,727,38.601816,22.377846,http://ourbumble.com/,Service Only,
Greece,Kirra,Avannis Camping,,,€0.00,-1,38.42495,22.4583,http://ourbumble.com/,Campsite,
Greece,,,,"Fresh WaterGrey WaterBlack WaterTrashToilets",€0.00,225,38.367639,23.535613,http://ourbumble.com/,Service Only,Service station with full services
Greece,,,,,€0.00,15,38.321027,23.786198,http://ourbumble.com/,Mixed Parking,
Greece,Kineta,,,,€0.00,16,37.974745,23.238191,http://ourbumble.com/,Wild,Beach side parking
Greece,,,,Trash,€0.00,148,37.710873,23.130837,http://ourbumble.com/,Mixed Parking,Parking area next to monastery.
Greece,,,Beach,"TrashFresh Water",€0.00,-12,37.680145,23.152191,http://ourbumble.com/,Mixed Parking,Parking area next to beach and harbour. Water available in the harbour.
Greece,Nea epidavros,Nea epidavros,Beach,"Fresh WaterGrey WaterBlack WaterTrashToiletsShowersWi-FiElectric",€0.00,-5,37.678661,23.148874,http://ourbumble.com/,Campsite,Not used so no comment
Greece,Tolo,,Beach,,€0.00,1,37.531754,22.890904,http://ourbumble.com/,Campsite,Not used so no comment.
Hungary,Gibart,,,,€0.00,145,48.316222,21.164241,http://ourbumble.com/gypsy-villages-hop-hungary/,Rest Area,
Hungary,Tokai,,,,€0.00,97,48.124631,21.41151,http://ourbumble.com/gypsy-villages-hop-hungary/,Mixed Parking,"Old town parking, Next to main road but quiet at night."
Italy,Lucca,,Village/Town/City,Trash,€6.00,19,43.846017,10.494876,http://ourbumble.com/barga-to-marradi/,Mixed Parking,Large tarmac carpark at the side of the walled city. €0.20 for 1st hour and then€1 per hour after with max €6 for the day. Reasonably quiet and well lit at night
Italy,Pescia,,Village/Town/City,Trash,€0.00,60,43.89838,10.690508,http://ourbumble.com/barga-to-marradi/,Mixed Parking,Flat car park at the side of Lidl.  No limitations and good base for visiting the town of Pescia
Italy,Pistoia,,Village/Town/City,"Fresh WaterGrey WaterBlack WaterTrash",€4.50,68,43.941822,10.915456,http://ourbumble.com/barga-to-marradi/,Rest Area & Services,Small secure aire for €4.50 per day and only 1.5km to town centre
Italy,Pistoia,,Village/Town/City,Trash,€0.00,82,43.943133,10.91476,http://ourbumble.com/barga-to-marradi/,Mixed Parking,"Large car park next to sports facility.  Flat, tarmac and free.  Local bus services to town stop on the car park but only 1.5 km to centre.  Tap to the right."
Italy,Prado,,Village/Town/City,Trash,€0.00,54,43.863706,11.114219,http://ourbumble.com/barga-to-marradi/,Mixed Parking,"Large, flat car park on one of the main roads in to Prado.  No services but Lidl is just across the way."
Italy,Florence,,Village/Town/City,Trash,€0.00,140,43.800364,11.285389,http://ourbumble.com/barga-to-marradi/,Mixed Parking,"On main road, 4 km to Florence and on bus route.  Good views over Florence at sunset.  Pizzeria and handful of shops nearby."
Italy,Borgo San Lorenzo,,Village/Town/City,"Fresh WaterGrey WaterBlack WaterToiletsTrash",€0.00,189,43.957163,11.381406,http://ourbumble.com/barga-to-marradi/,Mixed Parking,"Flat car park over looking park, lake and ducks.  Fresh water tap, drain and public toilets.  Supermarket and all day market on a Friday."
Italy,Marradi,,Countryside,"Black WaterFresh WaterGrey WaterTrashElectric",€0.00,324,44.075738,11.613117,http://ourbumble.com/barga-to-marradi/,Rest Area & Services,Free aire with excellent countryside views.  Usual services plus electricity.  Very quiet.  Only 5 minutes walk in to village with plenty little shops.
Italy,Sestri Levante,,Village/Town/City,Fresh Water,€0.00,12,44.271277,9.40854,http://ourbumble.com/chiavari-to-barga/,Mixed Parking,"Parking all along the road, water is available in the park opposite."
Italy,Castiglione Chiavaresege,,Countryside,Trash,€0.00,546,44.253574,9.536069,http://ourbumble.com/chiavari-to-barga/,Wild,"Small lay by, stunning views out to the coast, very nice small bistro nearby. "
Italy,La Spezia,,Harbour,"Fresh WaterGrey WaterBlack WaterTrashToilets",€5.00,-11,44.103642,9.860147,http://ourbumble.com/chiavari-to-barga/,Rest Area & Services,"Free aire run by the ambulance team. Friendly and helpful and have all the information on visits to Cinque Terre.  All usual facilities and parking spots are on grass and gravel. Suggested donation €5 per day"
Italy,Fivizzano,,Countryside,"Fresh WaterTrash",€0.00,199,44.204942,10.093735,http://ourbumble.com/chiavari-to-barga/,Mixed Parking,Small tarmac car park ideal for stopover.  Two fresh water taps.  Nice views over hillside with mountain peaks in the distance.
Italy,Codiponte,,Countryside,"Fresh WaterTrash",€0.00,213,44.194106,10.15149,http://ourbumble.com/chiavari-to-barga/,Mixed Parking,"Smsll carpark with two nice little hill villages, castle and good mountain backdrop."
Italy,Minucciano,,Countryside,"TrashGrey WaterFresh Water",€0.00,657,44.20023,10.22918,http://ourbumble.com/chiavari-to-barga/,Mixed Parking,Small car park with stunning views over the tuscany hillside.  Flat with access to several water points.  Short stroll and you are in the village but limited supplies.
Italy,Verrucole,,Countryside,"Fresh WaterGrey WaterTrash",€0.00,656,44.180072,10.335669,http://ourbumble.com/chiavari-to-barga/,Mixed Parking,Gravel and grass car park with great views across countryside.  Very small hamlet with one bar.cafe.  Verrucole fortress only a short walk away. 
Italy,Castiglione di Garfagnana,,Village/Town/City,"Fresh WaterToiletsTrashBlack WaterGrey Water",€0.00,515,44.149675,10.411694,http://ourbumble.com/chiavari-to-barga/,Mixed Parking,Good parking spot with lovely views and right in front of the city gate.  Public toilets and fresh water facilities in the corner.  Tarmac but need to find the right spot or get out the chocs for levelling. 
Italy,Bagna,,Village/Town/City,Trash,€0.00,337,44.073762,10.476299,http://ourbumble.com/chiavari-to-barga/,Mixed Parking,Small level and tarmac parking space with overhead trees for shade.  In the nice part of the village with the centre just 5 minutes walk away.
Italy,Bagna,,Village/Town/City,"TrashFresh WaterGrey WaterBlack WaterElectric",€10.00,342,44.072276,10.481592,http://ourbumble.com/chiavari-to-barga/,Rest Area & Services,"Sosta in the town centre, right between the old and new section of town. Cost is €10 but that includes electricity. The machines is broken so no charge at the moment. Level gravel surface with plenty water and electric points. Follow for the hospital parking signs."
Italy,Cesano,,,,€0.00,16,43.747761,13.174375,http://ourbumble.com/how-to-zoom-through-5-countries-in-1-day/,Wild,Small parking bay at side of apartments and straight on beach
Italy,Cesano,,,,€0.00,2,43.74633,13.177029,http://ourbumble.com/how-to-zoom-through-5-countries-in-1-day/,Mixed Parking,Parking bay with immediate access to beach and away from rail tracks
Italy,,,,,€0.00,40,44.519447,11.216694,http://ourbumble.com/how-to-zoom-through-5-countries-in-1-day/,Service Only,
Italy,,,,,€0.00,55,44.961855,9.907337,http://ourbumble.com/how-to-zoom-through-5-countries-in-1-day/,Service Only,
Italy,,,,,€0.00,51,45.143745,9.633436,http://ourbumble.com/how-to-zoom-through-5-countries-in-1-day/,Service Only,
Italy,,,,,€0.00,102,45.3908,9.188361,http://ourbumble.com/how-to-zoom-through-5-countries-in-1-day/,Service Only,
Italy,Angera,,,,€0.00,193,45.771785,8.580563,http://ourbumble.com/how-to-zoom-through-5-countries-in-1-day/,Mixed Parking,
Italy,Monvalle,,,,€0.00,201,45.851236,8.621085,http://ourbumble.com/how-to-zoom-through-5-countries-in-1-day/,Mixed Parking,Quite grass area
Italy,Santa Caterina,,,,€0.00,265,45.877079,8.599566,http://ourbumble.com/how-to-zoom-through-5-countries-in-1-day/,Mixed Parking,Nice car park.
Italy,Germignaga,,Lake,"Fresh WaterGrey WaterBlack WaterTrashToilets",€0.00,196,45.996226,8.724208,http://ourbumble.com/how-to-zoom-through-5-countries-in-1-day/,Rest Area & Services,
Italy,Germignaga,,,,€0.00,204,45.99575,8.724231,http://ourbumble.com/how-to-zoom-through-5-countries-in-1-day/,Mixed Parking,Good place and pleasant town.
Italy,Ravenna,,Village/Town/City,Trash,€0.00,2,44.406862,12.193927,http://ourbumble.com/marradi-to-treviso/,Mixed Parking,Next to sports stadium and only 10 minutes walk to centre.  Very quiet at night.
Italy,Camacchio,,Beach,"Fresh WaterGrey Water",€0.00,-5,44.672208,12.242132,http://ourbumble.com/marradi-to-treviso/,Mixed Parking,Small car park for motorhomes.  5 minutes walk to the beach or canals or cafes.  Water facility but no grey or black facilities
Italy,Camacchio,,Beach,Trash,€0.00,-19,44.672438,12.246744,http://ourbumble.com/marradi-to-treviso/,Mixed Parking,Dedicated parking for motorhomes.  Tariff in place during high season but it is only cheap with maximum €4 for the day.  Right on the beach.
Italy,Camacchio Village,,Village/Town/City,,€0.00,-22,44.690632,12.184898,http://ourbumble.com/marradi-to-treviso/,Wild,"Grassed area at the side of the river.  Nice, clean and quiet and only 5 minutes walk to village.  Coop at the end of the road."
Italy,Venice,Camping Venezia,Village/Town/City,"Fresh WaterGrey WaterBlack WaterTrashToiletsShowersElectricWi-Fi",€18.00,-2,45.480424,12.274968,http://ourbumble.com/marradi-to-treviso/,Campsite,"Superb little campsite, close to Venice via bus stop 300m away. Heated pool, full washing facilities and washing machines. Onsite restaurant and bar with reasonable prices. All pitches are sheltered with trees. Price is €30 or €18 with asci card. Includes electricity etc."
Italy,Treviso,,Village/Town/City,Trash,€0.00,34,45.648901,12.240253,http://ourbumble.com/marradi-to-treviso/,Mixed Parking,"Car park next to Conad supermarket, 2km into the town centre, quiet at night. Also parking on the supermarket carpark opposite."
Italy,Ventimiglia,,,Trash,€0.00,20,43.7936,7.602094,http://ourbumble.com/saint-paul-du-vence-to-santo-stefano-la-mare/,Mixed Parking,"Large car park on the border with France, free except on Fridays. 2mins to the stoney beach, camping bungalows behind. Seems quite a popular spot with campers but plenty space."
Italy,Santo Stefano la Mare,,Beach,Trash,€10.00,6,43.837071,7.905704,http://ourbumble.com/saint-paul-du-vence-to-santo-stefano-la-mare/,Mixed Parking,"Car park located next to the port and over looking the ocean, €1.50 per hour or €10 for the day until 8am."
Italy,Imperia,,Village/Town/City,,€0.00,-15,43.88379,8.02724,http://ourbumble.com/santo-stefano-la-mare-to-chiavari/,Mixed Parking,"Small dead end street, so restricted traffic flow.  Located on the west side of the river at the side of the marina.  Flat, level tarmac surface."
Italy,Imperia,,Harbour,,€0.00,13,43.885268,8.028523,http://ourbumble.com/santo-stefano-la-mare-to-chiavari/,Mixed Parking,On street parking plus parking in little bays just off the road.  Quiet parking spot as off the main road and at the side of the marina.  Historic town of Imperia just 5 minutes stroll.
Italy,Borghetto Santo Spirito,,Village/Town/City,Trash,€0.00,27,44.113324,8.231655,http://ourbumble.com/santo-stefano-la-mare-to-chiavari/,Mixed Parking,"Residential parking space.  Flat, tarmac and just off the main road, so reasonably quiet.  Good spot sleepover spot but no attractions nearby"
Italy,Toirano,,Countryside,"Fresh WaterTrashToiletsWi-Fi",€0.00,140,44.135389,8.200452,http://ourbumble.com/santo-stefano-la-mare-to-chiavari/,Mixed Parking,Tarmac car park for visitors to cave.  Free to use during opening times and provides great views around surrounding landscape.  Fresh water taps all around edge of car park.
Italy,Toirano,,Village/Town/City,"Fresh WaterTrash",€0.00,48,44.124709,8.210192,http://ourbumble.com/santo-stefano-la-mare-to-chiavari/,Mixed Parking,"Most of the town has no motorhome parking but this little car park just at the side of the church permits campers.  If parked in the corner you get a little patio, lawned area and your own tree. Nice and quiet."
Italy,Finale Ligure,,Beach,Trash,€0.00,9,44.178676,8.374429,http://ourbumble.com/santo-stefano-la-mare-to-chiavari/,Mixed Parking,Flat tarmac road with views out to see.  Good views but beach access is limited and main road is busy.
Italy,Savona,,Harbour,Trash,€0.00,5,44.307823,8.484882,http://ourbumble.com/santo-stefano-la-mare-to-chiavari/,Wild,"East side of Savona near to all the historical sites and the marina.  At night, quiet with only handful of passing cars and feels safe.  The west side of town near the port area feels less safe and rather run down."
Italy,Arenzano,,Village/Town/City,Trash,€0.00,32,44.401431,8.678094,http://ourbumble.com/santo-stefano-la-mare-to-chiavari/,Mixed Parking,Small community car park in quiet area.  Good for stopping on way to Genoa but not much else.
Italy,Chiavari,,,,€0.00,148,44.330427,9.288245,http://ourbumble.com/santo-stefano-la-mare-to-chiavari/,Mixed Parking,"Lay by beside the main road, good spot for overnight with great view across the bay."
Italy,Aquileia,,Village/Town/City,"Fresh WaterBlack WaterTrashToilets",€10.00,-1,45.765737,13.369828,http://ourbumble.com/treviso-to-trieste/,Rest Area & Services,Good size aire for visiting town but expensive at €10 per day when free parking in and and around town.
Italy,Aquileia,,Village/Town/City,Trash,€0.00,5,45.763432,13.36696,http://ourbumble.com/treviso-to-trieste/,Mixed Parking,"Municipal parking just 2 minutes from the aire with limitations and set amongst pruned hedges and trees.  Flat and quiet. You can use the aire services near by for black, grey and fresh for free. (Image of Aire)"
Italy,Grado,,Village/Town/City,Trash,€0.00,1,45.681172,13.388409,http://ourbumble.com/treviso-to-trieste/,Wild,"Grass embankment located right on the side of the canal.  Great views over boats, sea and town."
Italy,Grado,,Village/Town/City,"Fresh WaterGrey WaterBlack WaterTrashElectric",€16.00,4,45.681722,13.412031,http://ourbumble.com/treviso-to-trieste/,Rest Area & Services,Camper parking at rear of town.  Aire on either left of the road s barriered with usual camper services.clean and tidy
Italy,Grado,,Village/Town/City,Trash,€4.00,10,45.681754,13.412024,http://ourbumble.com/treviso-to-trieste/,Mixed Parking,Camper parking adjacent to the aire.  No barrier and no services but parking permitted.
Italy,Miramare,,Beach,Trash,€0.00,4,45.700987,13.722193,http://ourbumble.com/treviso-to-trieste/,Mixed Parking,Flat parking space right on sea front and close to castle.  No restrictions 
Italy,Trieste,,Harbour,"TrashFresh Water",€0.00,-7,45.682174,13.751221,http://ourbumble.com/treviso-to-trieste/,Mixed Parking,Flat car parking with spaces for campers.  Free from 7 until 9.  States no overnight parking but most Italian campers ignore.  Nice quiet spot with marina.  To right Miramare castle and left Trieste city.
Italy,Udine,,Village/Town/City,,€0.00,106,46.063323,13.219042,http://ourbumble.com/,Mixed Parking,Small car park.  Tarmac and off main road.  5 minutes walk to the park and 10 minutes to the city
Latvia,Araisi,,,,€0.00,124,57.249958,25.280721,http://ourbumble.com/black-swan-gauja-national-park/,Mixed Parking,Museum carpark. €4 to enter castle ruins and restored huts. Free to park
Latvia,Turaida,,,,€0.00,73,57.065415,24.400646,http://ourbumble.com/garden-god-thur-turaida/,Mixed Parking,Good for overnight as quiet and off main road. Space for half dozen vans
Latvia,Turaida,,,,€3.50,85,57.186828,24.844531,http://ourbumble.com/garden-god-thur-turaida/,Mixed Parking,"Estate car park, free overnight you pay for the daytime to one of the attendents."
Latvia,Riga,Riverside Camping,,"Fresh WaterGrey WaterBlack WaterToiletsTrashShowersElectricWi-Fi",€0.00,-8,56.965159,24.08189,http://ourbumble.com/garden-god-thur-turaida/,Campsite,"Simple aire with showers, toilets, washing machine and service. Basic €8 for motorhome plus €2.50 per adult plus €3 for electric"
Latvia,Ainazi,,Countryside,,€0.00,-20,57.866888,24.356476,http://ourbumble.com/riding-the-baltic-storms-roads-cesis/,Mixed Parking,Mixed parking area.
Latvia,,,,,€0.00,0,57.622746,24.386412,http://ourbumble.com/riding-the-baltic-storms-roads-cesis/,Rest Area,Car park beside the beach next to main road.
Latvia,Limbazi,,,,€0.00,59,57.514591,24.715341,http://ourbumble.com/riding-the-baltic-storms-roads-cesis/,Mixed Parking,Church and town parking.
Latvia,Cesis,,,,€0.00,111,57.314985,25.278691,http://ourbumble.com/riding-the-baltic-storms-roads-cesis/,Mixed Parking,Big car park no restriction
Latvia,Cesis,,,,€0.00,101,57.314228,25.281092,http://ourbumble.com/riding-the-baltic-storms-roads-cesis/,Mixed Parking & Services,Paved car park with toilet and fresh water facilities
Latvia,Rundale,Rundale hall,,,€0.00,22,56.415323,24.031847,http://ourbumble.com/rough-ride-rundale-palace/,Mixed Parking,Car park for car and separate one for coaches. Coaches park is much better - tarmac
Latvia, Siguldas pilseta,,,,€0.00,85,57.155526,24.854242,http://ourbumble.com/,Mixed Parking,Free car park opposite a park area.
Latvia, Siguldas pilseta,,,,€0.00,24,57.176102,24.846162,http://ourbumble.com/,Mixed Parking,Tarmac car park
Lithuania,Kaunas,Kaunas Camping,,,,44,54.93426,23.918432,http://kaunascamping.eu/,Campsite,
Lithuania,Trakai,,,,€0.00,151,54.637943,24.933447,http://ourbumble.com/fairytale-castle-charming-capital-vilnius/,Wild,"Off main road, behind building and over looking lake"
Lithuania,Siauliai,Hill of crosses,,,€2.90,108,56.014495,23.408854,http://ourbumble.com/hill-crosses-lithuania/,Mixed Parking,€2.90 for 24 hours
Lithuania,Siauliai,,,,€0.00,170,55.932461,23.319407,http://ourbumble.com/hill-crosses-lithuania/,Mixed Parking,Cathedral parking
Lithuania,Tytuvenai,Tytuvenai Monastery,,,€0.00,129,55.597712,23.201785,http://ourbumble.com/pilgrim-route-beautiful-tytuvenai-monastery/,Mixed Parking,Monastery car park
Lithuania,Kaunas,Kaunas City Camping,Village/Town/City,"Fresh WaterGrey WaterBlack WaterTrashToiletsShowersElectricWi-Fi",€18.00,32,54.934926,23.917061,http://ourbumble.com/wedding-capital-baltics-kaunas/,Campsite,Good little camp ground given location. Bit nosey from nearby motorway. Small pool and sunlounge area
Lithuania,Grutas ,Grutas Park,,,€0.00,109,54.024689,24.079531,http://ourbumble.com/,Mixed Parking,Free to park but signs says no overnight however the security guard did say we could stay over for €6
Netherlands,Vaals,,Village/Town/City,,€0.00,,50.77715,6.01469,http://ourbumble.com/cologne-to-uk/,Mixed Parking,Parking area next to a sports centre and industrial estate. Quite at night and close to cente.
Norway,North Cape,Knivskjellodden,Countryside,Trash,€0.00,,71.12195,25.388355,http://ourbumble.com/1st-dachshund-twins-knivskjellodden/,Mixed Parking,Car park for hike to official north cape.
Norway,Rana,Polarsirkelseneret,Countryside,Trash,€0.00,667,66.551772,15.321407,http://ourbumble.com/66-5on-the-arctic-circle-we-made-it/,Mixed Parking,Large carpark at arctic circle passing point.
Norway,Bodo,Bodo ferry,Harbour,"ToiletsTrash",€0.00,2,67.288376,14.39694,http://ourbumble.com/66-5on-the-arctic-circle-we-made-it/,Mixed Parking,Car park for ferry terminal but it is free and they dont mind you waiting
Norway,Gratangsbotn,,Harbour,,€0.00,,68.66231,17.76332,http://ourbumble.com/a-jurassic-landscape/,Mixed Parking,"Car park near a hotel just off the main road, great views over the valley below."
Norway,Malselv,,,"Fresh WaterGrey WaterBlack WaterTrashToilets",€0.00,,69.14048,18.60155,http://ourbumble.com/a-jurassic-landscape/,Rest Area & Services,Picnic area with tommy station and superb salmon fishing.
Norway,Balfjord,,,,€0.00,,69.14368,19.05217,http://ourbumble.com/a-jurassic-landscape/,Mixed Parking,Sami shop beside the main road
Norway,Storfjord,,,"Fresh WaterGrey WaterBlack WaterTrashToilets",€0.00,,69.27231,19.93364,http://ourbumble.com/a-jurassic-landscape/,Rest Area & Services,"Parking area next to lake, Popular stopping area with services."
Norway,Trondheim,,Village/Town/City,Trash,€25.00,-2,63.425873,10.382041,http://ourbumble.com/a-trudge-to-trondheim/,Mixed Parking,Dedicated motorhome parking in centre. Mixed motorhome and cars spaces but no services. On street parking available but it is the same price as the car park. Tromdheim very difficult to park and even several kilometres out of town the car parks charge Nok20 per hours.
Norway,Oslo,Holmankollen,Village/Town/City,,€0.00,354,59.965696,10.666798,http://ourbumble.com/another-fine-day-in-oslo/,Mixed Parking,Flat tarmac car park right at the side of the ski run. Great views over the city and fjord. No parking fees and can stay for max 48 hours
Norway,Henningsvaer,,Harbour,,€0.00,3,68.156174,14.208219,http://ourbumble.com/arctic-attire-shorts-t-shirt/,Mixed Parking,Village car park with space for campers and coaches. Gets very busy. Close to village and easy get level on tarmac.
Norway,Fredvang,,Beach,"Fresh WaterGrey WaterTrashToilets",€0.00,4,68.086984,13.172632,http://ourbumble.com/arctic-road/,Mixed Parking,Great picnic spot
Norway,Aspoya,,Lake,"Fresh WaterGrey WaterTrashToilets",€0.00,8,62.989775,7.882381,http://ourbumble.com/atlantic-road/,Mixed Parking,"Quiet spot just 20 minutes out of Kristiansund. Right on waters edge, greet spot."
Norway,Ner Hag,,Countryside,"Fresh WaterGrey WaterBlack WaterTrashToilets",€0.00,109,68.157902,13.6925,http://ourbumble.com/bad-news-in-ballstad/,Mixed Parking,Good Overnight sport with lovely views to mountains and coastline. Small tarmac bays or grass parking. 
Norway,Haukland,,Beach,Trash,€0.00,-8,68.199319,13.529272,http://ourbumble.com/bad-news-in-ballstad/,Mixed Parking,Great wild camping spot right on the beach. No facilities. Parking area consists of hard surface with sand and grass areas. Easy to find flat spot. Top and bottom car park.
Norway,Hannoy,,Harbour,"Fresh WaterBlack WaterGrey WaterTrash",€0.00,-65,67.948413,13.135675,http://ourbumble.com/bird-bombed-on-mid-summers-day/,Mixed Parking,"Small car park with service station. Fres, grey and black water.parking option overlooking fishing boats and small harbours"
Norway,Ramberg,,Countryside,,€0.00,26,68.101443,13.248561,http://ourbumble.com/bird-bombed-on-mid-summers-day/,Wild,Quiet spare land on outskirts of village. Two minutes to the beach and great views over headland. No immediate facilities
Norway,Asen,,Beach,,€0.00,0,70.05416,22.98381,http://ourbumble.com/bored-in-a-bay-with-fish-bones/,Wild,"Superb spot right on the water, Covered BBQ stations also there."
Norway,Svolvaer,,Village/Town/City,,€0.00,23,68.233063,14.531244,http://ourbumble.com/brght-nights-sensor-alert-reach-end-lofoten-islands/,Mixed Parking,Kiwi car park
